adl_id,Description,Type,Nature,Location,Perpetrator,Target,State,County,City,Fips_County,Date,CountyState,population_2010,latitude,longitude,Land_Area,Water_Area,Total_Area
424,swastika drawn on back of jewish student's chair by classmate.,vandalism,nazi,in school,student,student,CA,San Mateo,burlingame,6081,1/1/2016,San Mateo County CA,"718,451",37.414664,-122.37154199999999,448.408,292.551,740.959
896,high school soccer fans chanted anti-semitic slurs at opposing team.,harassment,general antisemitism,school event,crowd,student,FL,Broward,fort lauderdale,12011,1/1/2016,Broward County FL,"1,748,066",26.19352,-80.476658,"1,209.79",113.077,"1,322.86"
1446,jewish school received a bomb threat.,bomb threat,general antisemitism,in school,not specified,school,FL,Orange,maitland,12095,1/1/2016,Orange County FL,"1,145,956",28.514435,-81.323295,903.429,99.831,"1,003.26"
1855,non-jewish elementary school student told jewish peer she did not like her because she was jewish.,harassment,general antisemitism,in school,student,student,FL,Orange,orlando,12095,1/1/2016,Orange County FL,"1,145,956",28.514435,-81.323295,903.429,99.831,"1,003.26"
1878,jewish school received a bomb threat.,bomb threat,general antisemitism,in school,not specified,school,FL,Palm Beach,palm beach gardens,12099,1/1/2016,Palm Beach County FL,"1,320,134",26.645763,-80.448673,"1,969.76",413.246,"2,383.01"
1966,jewish student witnessed peer receive a text filled with anti-semitic content directed at her.,harassment,general antisemitism,social media,not specified,student,FL,St. Johns,ponte vedra beach,12109,1/1/2016,St. Johns County FL,"190,039",29.890593,-81.383914,600.655,220.87,821.525
1066,middle school student made anti-semitic comments during a class discussion of the holocaust.,harassment,general antisemitism,in school,student,not specified,FL,Volusia,daytona beach,12127,1/1/2016,Volusia County FL,"494,593",29.057616999999997,-81.161813,"1,101.03",331.404,"1,432.44"
438,middle school student the victim of ongoing anti-semitic jokes and taunts.,harassment,general antisemitism,not specified,student,student,GA,Grady,cairo,13131,1/1/2016,Grady County GA,"25,011",30.875863,-84.244772,454.527,5.737,460.264
1498,photo of swastika made of pennies circulated on social media at a high school.,cyberbullying,"nazi,money",social media,not specified,not specified,MA,Essex,marblehead,25009,1/1/2016,Essex County MA,"743,159",42.642711,-70.865107,492.563,335.911,828.474
1690,high school student victim of anti-semitic verbal harassment.,harassment,general antisemitism,not specified,not specified,student,MA,Middlesex,natick,25017,1/1/2016,Middlesex County MA,"1,503,085",42.479477,-71.396507,817.817,29.243,847.06
1024,school presentation defaced with swastika drawings.,vandalism,nazi,in school,not specified,not specified,NJ,Morris,hanover,34027,1/1/2016,Morris County NJ,"492,276",40.858581,-74.547427,460.177,21.448,481.625
2038,"school's grounds vandalized with swastikas, 666 imagery and profanities.",vandalism,nazi,outside school,not specified,not specified,PA,Berks,reading,42011,1/1/2016,Berks County PA,"411,442",40.413957,-75.92685999999999,856.506,9.249,865.755
1190,students used anti-semitic epithets to criticize individuals' appearances.,harassment,general antisemitism,not specified,student,student,FL,Miami-Dade,kendall,12086,2/1/2016,Miami-Dade County FL,"2,496,435",25.610494,-80.499045,"1,897.72",533.467,"2,431.18"
1944,"jewish students faced ongoing taunting and anti-semitic ""jokes"" from peers.",harassment,general antisemitism,not specified,student,student,FL,Palm Beach,boca raton,12099,2/1/2016,Palm Beach County FL,"1,320,134",26.645763,-80.448673,"1,969.76",413.246,"2,383.01"
2625,jewish student harassed on social media.,harassment,general antisemitism,social media,not specified,student,FL,Palm Beach,west palm beach,12099,2/1/2016,Palm Beach County FL,"1,320,134",26.645763,-80.448673,"1,969.76",413.246,"2,383.01"
44,"six middle school students performed ""heil hitler"" salute and called a boy ""hitler,"" in addition to swastikas found etched in school bathroom.","vandalism, harassment, performance",nazi,in school,student,student,GA,Fulton,alpharetta,13121,2/1/2016,Fulton County GA,"920,581",33.790034000000006,-84.468182,526.635,7.69,534.325
1755,"swastika drawn in the snow; ""burn the jews"" written in school bathroom.",vandalism,nazi,in school,not specified,not specified,MA,Middlesex,newton,25017,2/1/2016,Middlesex County MA,"1,503,085",42.479477,-71.396507,817.817,29.243,847.06
2336,bomb threat called into jewish school.,bomb threat,general antisemitism,in school,not specified,school,MO,St. Louis,st. louis,29189,2/1/2016,St. Louis County MO,"998,954",38.640702000000005,-90.445954,507.8,15.218,523.018
1705,jewish students faced anti-semitic harassment in school.,harassment,general antisemitism,in school,not specified,student,NJ,Middlesex,new brunswick,34023,2/1/2016,Middlesex County NJ,"809,858",40.439593,-74.407585,308.914,13.913,322.827
1781,middle school student victim of anti-semitic harassment by classmates.,harassment,general antisemitism,in school,student,student,OH,Stark,north canton,39151,2/1/2016,Stark County OH,"375,586",40.814131,-81.365667,575.271,5.262,580.533
2700,jewish school received a threatening phone call.,harassment,general antisemitism,in school,not specified,school,PA,Montgomery,wynnewood,42091,2/1/2016,Montgomery County PA,"799,874",40.209998999999996,-75.370201,483.04,4.155,487.195
425,students received an email that denied the events of the holocaust.,harassment,holocaust denial,social media,not specified,student,VT,Chittenden,burlington,50007,2/1/2016,Chittenden County VT,"156,545",44.460676,-73.070525,536.578,82.721,619.299
1501,student was target of anti-semitic bullying,harassment,general antisemitism,not specified,student,student,AZ,Pinal,maricopa,4021,3/1/2016,Pinal County AZ,"375,770",32.91891,-111.36725700000001,"5,365.61",8.622,"5,374.23"
696,jewish girl at middle school victim of anti-semitic bullying by peers.,harassment,general antisemitism,in school,student,student,CA,Contra Costa,danville,6013,3/1/2016,Contra Costa County CA,"1,049,025",37.919478999999995,-121.95154299999999,715.937,87.833,803.77
1202,class course website about insects displayed anti-semitic cartoons comparing jews to cockroaches.,cyberbullying,general antisemitism,social media,not specified,not specified,FL,Osceola,kissimmee,12097,3/1/2016,Osceola County FL,"268,685",28.059027,-81.139312,"1,327.45",178.453,"1,505.91"
1178,"middle school students told another student, ""all jews should have died"" and ""hitler was right.""",harassment,nazi,in school,student,student,FL,Palm Beach,jupiter,12099,3/1/2016,Palm Beach County FL,"1,320,134",26.645763,-80.448673,"1,969.76",413.246,"2,383.01"
1423,students made offensive holocaust jokes and promoted anti-semitic conspiracy theories.,harassment,nazi,not specified,student,not specified,FL,Palm Beach,loxahatchee,12099,3/1/2016,Palm Beach County FL,"1,320,134",26.645763,-80.448673,"1,969.76",413.246,"2,383.01"
1162,middle school student victim of ongoing anti-semitic harassment.,harassment,general antisemitism,not specified,not specified,student,GA,Fulton,johns creek,13121,3/1/2016,Fulton County GA,"920,581",33.790034000000006,-84.468182,526.635,7.69,534.325
79,swastika and racist graffiti found at middle school.,vandalism,nazi,in school,not specified,not specified,MA,Middlesex,arlington,25017,3/1/2016,Middlesex County MA,"1,503,085",42.479477,-71.396507,817.817,29.243,847.06
924,"middle school students made anti-semitic remarks, blamed jews and israel for 9/11 terrorist attacks.",harassment,"general antisemitism, israel, conspiracy",not specified,student,not specified,MA,Middlesex,framingham,25017,3/1/2016,Middlesex County MA,"1,503,085",42.479477,-71.396507,817.817,29.243,847.06
1507,boy was victim of anti-semitic bullying in school.,harassment,general antisemitism,in school,student,student,MA,Middlesex,marlborough,25017,3/1/2016,Middlesex County MA,"1,503,085",42.479477,-71.396507,817.817,29.243,847.06
1756,"""burn the jews"" written in school bathroom.",vandalism,nazi,in school,not specified,not specified,MA,Middlesex,newton,25017,3/1/2016,Middlesex County MA,"1,503,085",42.479477,-71.396507,817.817,29.243,847.06
1762,swastika and message promoting anti-semitism found in girl's bathroom of high school.,vandalism,"nazi, general antisemitism",in school,not specified,not specified,MA,Middlesex,newton,25017,3/1/2016,Middlesex County MA,"1,503,085",42.479477,-71.396507,817.817,29.243,847.06
468,student spectators at high school basketball game yelled anti-semitic taunts at opposing team's fans.,harassment,general antisemitism,school event,crowd,school,MA,Suffolk,boston,25025,3/1/2016,Suffolk County MA,"722,023",42.331959999999995,-71.020173,58.154,62.065,120.219
1272,"jewish student told to ""burn in the ovens with the other jews.""",harassment,nazi,not specified,student,student,MI,Macomb,l'anse creuse,26099,3/1/2016,Macomb County MI,"840,978",42.671467,-82.91086899999999,479.223,91.627,570.85
976,swastika graffiti discovered in high school bathroom.,vandalism,nazi,in school,not specified,not specified,NJ,Gloucester,glassboro,34015,3/1/2016,Gloucester County NJ,"288,288",39.721019,-75.14370799999999,322.005,15.172,337.177
1805,swastika etched into front driver-side window of car parked in front of high school.,vandalism,nazi,outside school,not specified,not specified,NY,Kings,brooklyn,36047,3/1/2016,Kings County NY,"2,504,700",40.635133,-73.950777,70.816,26.102,96.918
2037,"students reported hearing the word ""jew"" used pejoratively.",harassment,general antisemitism,not specified,not specified,not specified,PA,Berks,reading,42011,3/1/2016,Berks County PA,"411,442",40.413957,-75.92685999999999,856.506,9.249,865.755
2386,"jewish students repeatedly targeted with anti-semitic comments, slurs, phone calls and the nazi salute. swastika drawn in front of elementary school.","harassment, performance, vandalism","nazi, general antisemitism","in school, outside school",not specified,student,SC,Berkeley,summerville,45015,3/1/2016,Berkeley County SC,"177,843",33.2077,-79.953655,"1,098.86",130.38,"1,229.24"
1085,"teacher yelled ""heil, hitler"" at jewish student.",harassment,nazi,in school,teacher,student,TX,Harris,houston,48201,3/1/2016,Harris County TX,"4,092,459",29.857273,-95.39303699999999,"1,703.48",74.005,"1,777.48"
1223,"jewish high school student told by his peers ""you should have burned like all the rest of the jews.""",harassment,nazi,not specified,student,student,CA,Contra Costa,lafayette,6013,4/1/2016,Contra Costa County CA,"1,049,025",37.919478999999995,-121.95154299999999,715.937,87.833,803.77
1795,swastika and other graffiti found on school wall.,vandalism,nazi,in school,not specified,not specified,CA,Los Angeles,northridge,6037,4/1/2016,Los Angeles County CA,"9,818,605",34.196397999999995,-118.26186200000001,"4,057.88",693.058,"4,750.94"
1659,high school students made anti-semitic remarks and threatened violence in online group chat during school elections.,harassment,general antisemitism,social media,student,not specified,CA,Santa Clara,mountain view,6085,4/1/2016,Santa Clara County CA,"1,781,642",37.220777000000005,-121.69062199999999,"1,290.10",13.967,"1,304.07"
92,jewish student at public high school was victim of anti-semitic harassment and bullying.,harassment,general antisemitism,in school,student,student,CO,Jefferson,arvada,8059,4/1/2016,Jefferson County CO,"534,543",39.586459999999995,-105.24560100000001,764.208,9.825,774.033
2644,high school student experienced ongoing anti-semitic harassment on social media.,harassment,general antisemitism,social media,not specified,student,FL,Broward,weston,12011,4/1/2016,Broward County FL,"1,748,066",26.19352,-80.476658,"1,209.79",113.077,"1,322.86"
1149,"""free palestine, free gaza"" keyed into jewish student's car at high school.",vandalism,israel,outside school,not specified,student,FL,Duval,jacksonville,12031,4/1/2016,Duval County FL,"864,263",30.335245,-81.648113,762.192,156.26,918.452
319,jewish students at a middle school experienced anti-semitic harassment and bullying.,harassment,general antisemitism,in school,student,student,FL,Manatee,bradenton,12081,4/1/2016,Manatee County FL,"322,833",27.481385999999997,-82.36578399999999,742.931,149.748,892.679
680,jewish student threatened and taunted by his peers and teachers for being jewish.,harassment,general antisemitism,in school,"teacher, student",student,FL,Miami-Dade,cutler bay,12086,4/1/2016,Miami-Dade County FL,"2,496,435",25.610494,-80.499045,"1,897.72",533.467,"2,431.18"
266,"middle school student heard multiple anti-semitic ""jokes"" during lunch.",harassment,general antisemitism,in school,not specified,not specified,FL,Palm Beach,boca raton,12099,4/1/2016,Palm Beach County FL,"1,320,134",26.645763,-80.448673,"1,969.76",413.246,"2,383.01"
1879,"public school student called a ""jew"" in a derogatory fashion.",harassment,general antisemitism,not specified,not specified,student,FL,Palm Beach,palm beach gardens,12099,4/1/2016,Palm Beach County FL,"1,320,134",26.645763,-80.448673,"1,969.76",413.246,"2,383.01"
439,high school students posted anti-semitic content.,harassment,general antisemitism,social media,student,not specified,GA,Grady,cairo,13131,4/1/2016,Grady County GA,"25,011",30.875863,-84.244772,454.527,5.737,460.264
1497,swastika carved into school bleachers.,vandalism,nazi,in school,not specified,not specified,MA,Essex,marblehead,25009,4/1/2016,Essex County MA,"743,159",42.642711,-70.865107,492.563,335.911,828.474
1765,swastika graffiti discovered in high school bathroom.,vandalism,nazi,in school,not specified,not specified,MA,Middlesex,newton,25017,4/1/2016,Middlesex County MA,"1,503,085",42.479477,-71.396507,817.817,29.243,847.06
1764,swastika found drawn in dust of stairwell at middle school.,vandalism,nazi,in school,not specified,not specified,MA,Middlesex,newton,25017,4/1/2016,Middlesex County MA,"1,503,085",42.479477,-71.396507,817.817,29.243,847.06
1774,"middle school student called teacher a ""kike.""",harassment,general antisemitism,in school,student,teacher,MA,Worcester,upton,25027,4/1/2016,Worcester County MA,"798,552",42.311693,-71.940282,"1,510.77",68.424,"1,579.19"
2687,jewish student experienced anti-semitic harassment at school.,harassment,general antisemitism,in school,not specified,student,MI,Oakland,wixom,26125,4/1/2016,Oakland County MI,"1,202,362",42.660452,-83.38421,867.663,39.631,907.294
2337,white supremacist left anti-semitic comments on social media in wake of post referencing hateful flyers found on school campus.,"harassment, literature dump",general antisemitism,"social media, in school",outsider,not specified,MO,St. Louis,st. louis,29189,4/1/2016,St. Louis County MO,"998,954",38.640702000000005,-90.445954,507.8,15.218,523.018
1450,jewish students faced anti-semitic harassment in school.,harassment,general antisemitism,in school,not specified,student,NH,Hillsborough,manchester,33011,4/1/2016,Hillsborough County NH,"400,721",42.911643,-71.723101,876.139,16.076,892.215
225,high school student faced ongoing anti-semitic bullying at school.,harassment,general antisemitism,in school,student,student,NJ,Bergen,bergenfield,34003,4/1/2016,Bergen County NJ,"905,116",40.95909,-74.074522,233.009,13.662,246.671
800,"swastikas and ""white power"" etched into bathroom stall at high school.",vandalism,nazi,in school,not specified,not specified,NJ,Bergen,east rutherford,34003,4/1/2016,Bergen County NJ,"905,116",40.95909,-74.074522,233.009,13.662,246.671
1076,swastika graffiti discovered in school bathroom.,vandalism,nazi,in school,not specified,not specified,NJ,Monmouth,holmdel,34025,4/1/2016,Monmouth County NJ,"630,380",40.287056,-74.152446,468.793,196.527,665.32
14,middle school student victim of anti-semitic verbal harassment.,harassment,general antisemitism,not specified,not specified,student,NM,Bernalillo,albuquerque,35001,4/1/2016,Bernalillo County NM,"662,564",35.054002000000004,-106.66906499999999,"1,160.83",6.36,"1,167.19"
718,"swastika and ""nazi"" carved into stall at high school bathroom.",vandalism,nazi,in school,not specified,not specified,NY,Suffolk,deer park,36103,4/1/2016,Suffolk County NY,"1,493,350",40.943554,-72.69221800000001,912.051,"1,461.08","2,373.13"
1067,swastika drawn on exterior wall of middle school.,vandalism,nazi,outside school,not specified,not specified,NY,Suffolk,holbrook,36103,4/1/2016,Suffolk County NY,"1,493,350",40.943554,-72.69221800000001,912.051,"1,461.08","2,373.13"
2504,catholic school vandalized with swastika.,vandalism,nazi,in school,not specified,not specified,OH,Cuyahoga,university heights,39035,4/1/2016,Cuyahoga County OH,"1,280,122",41.760391999999996,-81.72421700000001,457.191,788.396,"1,245.59"
1625,"""hitler did nothin' wrong"" painted outside classroom.",vandalism,nazi,in school,not specified,not specified,AL,Mobile,mobile,1097,5/1/2016,Mobile County AL,"412,992",30.684572999999997,-88.196568,"1,229.44",414.577,"1,644.01"
1332,casual references to the holocaust and anti-semitic jokes made in a middle school classroom.,harassment,"nazi, general antisemitism",in school,not specified,not specified,CA,Los Angeles,long beach,6037,5/1/2016,Los Angeles County CA,"9,818,605",34.196397999999995,-118.26186200000001,"4,057.88",693.058,"4,750.94"
1751,"swastikas and ""hail hitler"" graffiti found in high school bathroom.",vandalism,nazi,in school,not specified,not specified,CA,Ventura,newbury park,6111,5/1/2016,Ventura County CA,"823,318",34.358742,-119.13314299999999,"1,843.13",365.249,"2,208.38"
1011,posters at a middle school vandalized with anti-semitic graffiti.,vandalism,general antisemitism,in school,not specified,not specified,CO,Arapahoe,greenwood village,8005,5/1/2016,Arapahoe County CO,"572,003",39.644632,-104.331733,798.1,7.337,805.437
834,teacher at a high school received anti-semitic threats from students.,harassment,general antisemitism,in school,student,teacher,CO,Weld,erie,8123,5/1/2016,Weld County CO,"252,825",40.555794,-104.383649,"3,987.24",29.558,"4,016.80"
457,middle school student victim of ongoing anti-semitic bullying and harassment.,harassment,general antisemitism,not specified,student,student,FL,Lee,cape coral,12071,5/1/2016,Lee County FL,"618,754",26.552134000000002,-81.89225,784.513,427.948,"1,212.46"
1546,"student faced ongoing harassment and bullying at school, including anti-semitic and homophobic slurs.",harassment,"general antisemitism, oppression connection",in school,student,student,FL,Miami-Dade,miami,12086,5/1/2016,Miami-Dade County FL,"2,496,435",25.610494,-80.499045,"1,897.72",533.467,"2,431.18"
1163,"multiple incidents of anti-semitic behavior reported at middle school, including students chanting ""heil hitler"" on school bus.",harassment,"nazi, general antisemitism","in school, outside school",student,not specified,GA,Fulton,johns creek,13121,5/1/2016,Fulton County GA,"920,581",33.790034000000006,-84.468182,526.635,7.69,534.325
522,anti-semitic remarks made during a student government hearing.,harassment,general antisemitism,in school,student,not specified,IL,Cook,chicago,17031,5/1/2016,Cook County IL,"5,194,675",41.894294,-87.645455,945.326,689.533,"1,634.86"
968,swastika drawn on football field at middle school.,vandalism,nazi,outside school,not specified,not specified,MA,Essex,georgetown,25009,5/1/2016,Essex County MA,"743,159",42.642711,-70.865107,492.563,335.911,828.474
1768,small swastika found carved into table at school.,vandalism,nazi,in school,not specified,not specified,MA,Middlesex,newton,25017,5/1/2016,Middlesex County MA,"1,503,085",42.479477,-71.396507,817.817,29.243,847.06
1767,swastika was found on stool in classroom.,vandalism,nazi,in school,not specified,not specified,MA,Middlesex,newton,25017,5/1/2016,Middlesex County MA,"1,503,085",42.479477,-71.396507,817.817,29.243,847.06
2686,swastika vandalism discovered in high school.,vandalism,nazi,in school,not specified,not specified,MA,Suffolk,winthrop,25025,5/1/2016,Suffolk County MA,"722,023",42.331959999999995,-71.020173,58.154,62.065,120.219
2091,swastika drawn on jewish middle school student's locker.,vandalism,nazi,in school,not specified,student,MN,Dakota,rosemount,27037,5/1/2016,Dakota County MN,"398,552",44.670893,-93.062481,562.168,24.699,586.867
37,numerous swastikas drawn on underside of stairwell in school.,vandalism,nazi,in school,not specified,not specified,NJ,Bergen,allendale,34003,5/1/2016,Bergen County NJ,"905,116",40.95909,-74.074522,233.009,13.662,246.671
801,swastika graffiti discovered in high school bathroom.,vandalism,nazi,in school,not specified,not specified,NJ,Bergen,east rutherford,34003,5/1/2016,Bergen County NJ,"905,116",40.95909,-74.074522,233.009,13.662,246.671
1780,"student started singing ""cleanup cleanup like hitler cleaned up and killed all the jews"" after teacher announced it was time to clean up.",harassment,nazi,in school,student,not specified,NJ,Middlesex,north brunswick,34023,5/1/2016,Middlesex County NJ,"809,858",40.439593,-74.407585,308.914,13.913,322.827
1109,swastikas and male genitalia spray-painted on school playground equipment.,vandalism,nazi,outside school,not specified,not specified,NJ,Monmouth,howell,34025,5/1/2016,Monmouth County NJ,"630,380",40.287056,-74.152446,468.793,196.527,665.32
412,high school hallway vandalized with swastika.,vandalism,nazi,in school,not specified,not specified,NY,Kings,brooklyn,36047,5/1/2016,Kings County NY,"2,504,700",40.635133,-73.950777,70.816,26.102,96.918
1817,fire started inside school bus belonging to a jewish school.,vandalism,general antisemitism,outside school,not specified,not specified,NY,Kings,brooklyn,36047,5/1/2016,Kings County NY,"2,504,700",40.635133,-73.950777,70.816,26.102,96.918
1725,anti-semitic comments posted city school district's facebook page.,harassment,general antisemitism,social media,not specified,not specified,NY,Westchester,new rochelle,36119,5/1/2016,Westchester County NY,"949,113",41.152770000000004,-73.745912,430.497,69.498,499.995
1641,nazi imagery superimposed over high school student's campaign picture.,vandalism,nazi,in school,not specified,student,PA,Susquehanna,montrose,42115,5/1/2016,Susquehanna County PA,"43,356",41.819665,-75.800969,823.435,8.708,832.143
152,swastika vandalism in elementary school.,vandalism,nazi,in school,not specified,not specified,TX,Travis,austin,48453,5/1/2016,Travis County TX,"1,024,266",30.239513,-97.69126999999999,990.202,32.806,"1,023.01"
2094,jewish middle school student victim of anti-semitic harassment.,harassment,general antisemitism,in school,not specified,student,TX,Williamson,round rock,48491,5/1/2016,Williamson County TX,"422,679",30.64903,-97.605069,"1,118.30",16.136,"1,134.44"
980,drawing of swastika discovered on desk in classroom.,vandalism,nazi,in school,not specified,not specified,WI,Milwaukee,glendale,55079,5/1/2016,Milwaukee County WI,"947,735",43.017655,-87.481575,241.402,948.137,"1,189.54"
2689,jewish student victim of anti-semitic bullying.,harassment,general antisemitism,in school,student,student,CT,New Haven,woodbridge,9009,6/1/2016,New Haven County CT,"862,477",41.349717,-72.900204,604.506,257.551,862.057
1499,"parent at high school softball game yelled ""beat those jews"" at player on opposing team.",harassment,general antisemitism,school event,parent,student,MA,Essex,marblehead,25009,6/1/2016,Essex County MA,"743,159",42.642711,-70.865107,492.563,335.911,828.474
1346,photo in middle school yearbook showed student performing the nazi salute.,performance,nazi,publication,student,not specified,MA,Hampden,longmeadow,25013,6/1/2016,Hampden County MA,"463,490",42.136198,-72.635648,617.14,17.111,634.251
1899,"""hitler worshiper"" and ""the jew shanker"" written in middle school student's yearbook.",harassment,nazi,publication,not specified,student,MA,Plymouth,pembroke,25023,6/1/2016,Plymouth County MA,"494,919",41.987196000000004,-70.74194200000001,659.075,434.177,"1,093.25"
2634,two middle school students drew swastikas in other students' yearbooks.,vandalism,nazi,publication,student,student,MA,Worcester,westborough,25027,6/1/2016,Worcester County MA,"798,552",42.311693,-71.940282,"1,510.77",68.424,"1,579.19"
1260,jewish students faced anti-semitic harassment in school.,harassment,general antisemitism,in school,not specified,student,NJ,Ocean,brick,34029,6/1/2016,Ocean County NJ,"576,567",39.86585,-74.26302700000001,628.781,286.62,915.401
1815,"student drew swastika and wrote: ""adolf hitler is my boy"" on another student's homework assignment.",vandalism,nazi,in school,student,student,NJ,Ocean,ocean,34029,6/1/2016,Ocean County NJ,"576,567",39.86585,-74.26302700000001,628.781,286.62,915.401
355,jewish woman verbally harassed with anti-semitic remarks by another parent at school function.,harassment,general antisemitism,school event,parent,parent,NY,Kings,brooklyn,36047,6/1/2016,Kings County NY,"2,504,700",40.635133,-73.950777,70.816,26.102,96.918
2550,elementary school sign vandalized with swastika.,vandalism,nazi,outside school,not specified,not specified,PA,Bucks,warrington,42017,6/1/2016,Bucks County PA,"625,249",40.336887,-75.10706,604.307,17.567,621.874
1422,middle school student student received drawing of swastika on his graduation yearbook.,vandalism,nazi,publication,not specified,student,PA,Montgomery,lower merion,42091,6/1/2016,Montgomery County PA,"799,874",40.209998999999996,-75.370201,483.04,4.155,487.195
1832,students received an email that denied the events of the holocaust.,harassment,holocaust denial,social media,not specified,student,WA,Thurston,olympia,53067,6/1/2016,Thurston County WA,"252,264",46.932598,-122.82944099999999,721.961,51.541,773.502
2202,"swastikas, ""kkk,"" and ""auschwitz"" written in middle school student's yearbook.",vandalism,nazi,publication,not specified,student,CA,San Diego,san marcos,6073,7/1/2016,San Diego County CA,"3,095,313",33.023604,-116.776117,"4,206.63",319.055,"4,525.69"
1262,swastika was drawn on jewish school.,vandalism,nazi,outside school,not specified,not specified,NJ,Ocean,lakewood,34029,7/1/2016,Ocean County NJ,"576,567",39.86585,-74.26302700000001,628.781,286.62,915.401
986,student was target of anti-semitic bullying.,harassment,general antisemitism,not specified,student,student,AZ,Maricopa,goodyear,4013,8/1/2016,Maricopa County AZ,"3,817,117",33.346540999999995,-112.495534,"9,200.14",24.246,"9,224.39"
1333,elementary school teacher performed nazi salute to class during the united states pledge of allegiance.,performance,nazi,in school,teacher,not specified,CA,Los Angeles,long beach,6037,8/1/2016,Los Angeles County CA,"9,818,605",34.196397999999995,-118.26186200000001,"4,057.88",693.058,"4,750.94"
2147,middle school teacher assigned an anti-semitic and pseudo-historical book that demonized israeli jews.,harassment,israel,in school,teacher,not specified,CA,San Diego,san diego,6073,8/1/2016,San Diego County CA,"3,095,313",33.023604,-116.776117,"4,206.63",319.055,"4,525.69"
1265,swastikas discovered in stairwell at jewish day school.,vandalism,nazi,in school,not specified,not specified,NJ,Ocean,lakewood,34029,8/1/2016,Ocean County NJ,"576,567",39.86585,-74.26302700000001,628.781,286.62,915.401
1263,several swastikas spray-painted on jungle gym and building door at jewish day school.,vandalism,nazi,outside school,not specified,not specified,NJ,Ocean,lakewood,34029,8/1/2016,Ocean County NJ,"576,567",39.86585,-74.26302700000001,628.781,286.62,915.401
360,three jewish children were followed home from the school bus and had their yarmulkes forcibly removed.,harassment,general antisemitism,off-campus,not specified,student,NY,Kings,brooklyn,36047,8/1/2016,Kings County NY,"2,504,700",40.635133,-73.950777,70.816,26.102,96.918
1969,jewish student received text from his classmates that depicted him dying in a gas chamber.,cyberbullying,nazi,social media,student,student,NY,Westchester,port chester,36119,8/1/2016,Westchester County NY,"949,113",41.152770000000004,-73.745912,430.497,69.498,499.995
1589,a jewish student was repeatedly targeted with anti-semitic comments from other students.,harassment,general antisemitism,not specified,student,student,WI,Milwaukee,milwaukee,55079,8/1/2016,Milwaukee County WI,"947,735",43.017655,-87.481575,241.402,948.137,"1,189.54"
113,anti-semitic flyers referencing local high schools found on public transportation.,literature dump,general antisemitism,off-campus,not specified,not specified,CA,Contra Costa,lafayette,6013,9/1/2016,Contra Costa County CA,"1,049,025",37.919478999999995,-121.95154299999999,715.937,87.833,803.77
1854,"members of a high school cheerleading squad made references to burning jews and posted ""hail hitler"" on social media.",harassment,nazi,social media,student,not specified,CA,Contra Costa,orinda,6013,9/1/2016,Contra Costa County CA,"1,049,025",37.919478999999995,-121.95154299999999,715.937,87.833,803.77
1334,jewish middle school student harassed by classmate at school and via text and social media.,harassment,general antisemitism,"social media, in school",student,student,CA,Los Angeles,long beach,6037,9/1/2016,Los Angeles County CA,"9,818,605",34.196397999999995,-118.26186200000001,"4,057.88",693.058,"4,750.94"
306,jewish student at public high school was target of anti-semitic harassment in a facebook group chat.,harassment,general antisemitism,social media,student,student,CO,Boulder,boulder,8013,9/1/2016,Boulder County CO,"294,567",40.094826,-105.39838200000001,726.289,14.081,740.37
268,student found book covered with anti-semitic symbolism in history class.,vandalism,general antisemitism,in school,not specified,not specified,FL,Palm Beach,boca raton,12099,9/1/2016,Palm Beach County FL,"1,320,134",26.645763,-80.448673,"1,969.76",413.246,"2,383.01"
2339,"at least ten different synagogues and day schools received anti-semitic, anti-government mailings over a period of two months.",literature dump,general antisemitism,"in school, off campus",not specified,school,MO,St. Louis,st. louis,29189,9/1/2016,St. Louis County MO,"998,954",38.640702000000005,-90.445954,507.8,15.218,523.018
605,swastika graffiti discovered on pipe on side of school building.,vandalism,nazi,outside school,not specified,not specified,NJ,Camden,collingswood,34007,9/1/2016,Camden County NJ,"513,657",39.802352,-74.961251,221.263,6.03,227.293
786,"student anonymously posted ""the jew killer"" as username in class game projected onto smartboard.",harassment,general antisemitism,in school,student,not specified,NJ,Middlesex,east brunswick,34023,9/1/2016,Middlesex County NJ,"809,858",40.439593,-74.407585,308.914,13.913,322.827
2400,school playground vandalized with swastika.,vandalism,nazi,outside school,not specified,not specified,PA,Delaware,swarthmore,42045,9/1/2016,Delaware County PA,"558,979",39.91667,-75.398786,183.843,6.76,190.603
1280,middle school student had a piece of paper with a swastika drawn on it placed in his backpack during the school day.,vandalism,nazi,in school,not specified,student,CA,Marin,larkspur,6041,10/1/2016,Marin County CA,"252,409",38.051817,-122.745974,520.306,307.886,828.192
1137,high school student reportedly wore a nazi uniform to school for halloween.,performance,nazi,in school,student,not specified,CA,Riverside,indio,6065,10/1/2016,Riverside County CA,"2,189,641",33.729828000000005,-116.00223899999999,"7,206.48",96.94,"7,303.42"
2672,"""burn jews,"" the n-word, ""gay,"" ""bitch,"" trump,"" and a drawing of a penis were written on a elementary school wall.",vandalism,"nazi, oppression connection",outside school,not specified,not specified,CA,Riverside,wildomar,6065,10/1/2016,Riverside County CA,"2,189,641",33.729828000000005,-116.00223899999999,"7,206.48",96.94,"7,303.42"
460,"jewish high school senior called a ""kike"" by classmates and faced multiple incidents of anti-semitic ""jokes.""",harassment,general antisemitism,in school,student,student,CA,San Diego,carlsbad,6073,10/1/2016,San Diego County CA,"3,095,313",33.023604,-116.776117,"4,206.63",319.055,"4,525.69"
2142,"student called peer a ""dirty jew"" and harassed him via social media, referencing hitler and ovens.",harassment,"nazi, general antisemitism",social media,student,student,CA,San Diego,san diego,6073,10/1/2016,San Diego County CA,"3,095,313",33.023604,-116.776117,"4,206.63",319.055,"4,525.69"
1326,high school student victim of anti-semitic harassment and bullying by another student.,harassment,general antisemitism,not specified,student,student,CO,Arapahoe,littleton,8005,10/1/2016,Arapahoe County CO,"572,003",39.644632,-104.331733,798.1,7.337,805.437
269,student harassed other students and drew swastikas on notebooks.,"harassment, vandalism",nazi,not specified,student,student,FL,Palm Beach,boca raton,12099,10/1/2016,Palm Beach County FL,"1,320,134",26.645763,-80.448673,"1,969.76",413.246,"2,383.01"
2630,middle school student was the victim of anti-semitic bullying at school and targeted on social media.,harassment,general antisemitism,"in school, social media",student,student,FL,Palm Beach,west palm beach,12099,10/1/2016,Palm Beach County FL,"1,320,134",26.645763,-80.448673,"1,969.76",413.246,"2,383.01"
456,"high school student experienced ongoing harassment by student who called him ""jew boy"" and ""jack the jew.""",harassment,general antisemitism,in school,student,student,GA,Cherokee,canton,13057,10/1/2016,Cherokee County GA,"214,346",34.244316999999995,-84.47505699999999,421.674,12.732,434.406
46,middle school students harassed other students with anti-semitic jokes.,harassment,general antisemitism,not specified,student,student,GA,Fulton,alpharetta,13121,10/1/2016,Fulton County GA,"920,581",33.790034000000006,-84.468182,526.635,7.69,534.325
111,elementary school student victim of anti-semitic bullying by peer.,harassment,general antisemitism,not specified,student,student,GA,Fulton,atlanta,13121,10/1/2016,Fulton County GA,"920,581",33.790034000000006,-84.468182,526.635,7.69,534.325
1772,swastika made of rubber pellets found on bench near a school athletic field.,vandalism,nazi,outside school,not specified,not specified,MA,Middlesex,newton,25017,10/1/2016,Middlesex County MA,"1,503,085",42.479477,-71.396507,817.817,29.243,847.06
987,anti-semitic images and statements found on hacked google document of middle school student.,"vandalism, cyberbullying",general antisemitism,social media,not specified,student,MA,Middlesex,newton,25017,10/1/2016,Middlesex County MA,"1,503,085",42.479477,-71.396507,817.817,29.243,847.06
2273,anti-semitic flyer sent to jewish school.,literature dump,general antisemitism,in school,not specified,school,MA,Norfolk,sharon,25021,10/1/2016,Norfolk County MA,"670,850",42.169703000000005,-71.179875,396.105,48.241,444.346
2609,swastika etched into computer at a high school.,vandalism,nazi,in school,not specified,not specified,MA,Norfolk,wellesley,25021,10/1/2016,Norfolk County MA,"670,850",42.169703000000005,-71.179875,396.105,48.241,444.346
1183,jewish student heard shouting outside his house about jews controlling economy and other anti-semitic stereotypes.,harassment,"general antisemitism, money, conspiracy",off-campus,not specified,not specified,MI,Washtenaw,ann arbor,26161,10/1/2016,Washtenaw County MI,"344,791",42.252327,-83.844634,705.965,16.454,722.419
1075,jewish student victim of anti-semitic harassment by classmate.,harassment,general antisemitism,not specified,student,student,NJ,Monmouth,holmdel,34025,10/1/2016,Monmouth County NJ,"630,380",40.287056,-74.152446,468.793,196.527,665.32
791,school restroom vandalized with swastikas.,vandalism,nazi,in school,not specified,not specified,NY,Nassau,east garden city,36059,10/1/2016,Nassau County NY,"1,339,532",40.729687,-73.589384,284.716,168.518,453.234
1658,"swastika and the words ""kill jews"" drawn in middle school bathroom.",vandalism,nazi,in school,not specified,not specified,SC,Charleston,mount pleasant,45019,10/1/2016,Charleston County SC,"350,209",32.800458,-79.94248,916.089,441.907,"1,358.00"
2214,jewish student overheard anti-semitic joke regarding the holocaust at school.,harassment,nazi,in school,not specified,not specified,UT,Salt Lake,sandy,49035,10/1/2016,Salt Lake County UT,"1,029,655",40.667882,-111.92424399999999,742.282,65.085,807.367
1335,"jewish student targeted with anti-semitic harassment after substitute teacher fails to stop students doing the ""heil hitler"" and chanting ""kill the jews.""",harassment,nazi,in school,student,student,CA,Los Angeles,long beach,6037,11/1/2016,Los Angeles County CA,"9,818,605",34.196397999999995,-118.26186200000001,"4,057.88",693.058,"4,750.94"
1881,"peers said ""heil hitler"" to jewish middle school girl.",harassment,nazi,in school,student,student,CA,Riverside,palm desert,6065,11/1/2016,Riverside County CA,"2,189,641",33.729828000000005,-116.00223899999999,"7,206.48",96.94,"7,303.42"
1217,boys performed nazi salute to jewish student during a soccer game.,performance,nazi,school event,student,student,CA,San Diego,la jolla,6073,11/1/2016,San Diego County CA,"3,095,313",33.023604,-116.776117,"4,206.63",319.055,"4,525.69"
749,"a school was vandalized with anti-semitic graffiti that included swastikas and the message ""we are hitler youth.""",vandalism,nazi,in school,not specified,not specified,CO,Denver,denver,8031,11/1/2016,Denver County CO,"600,158",39.761849,-104.880625,153,1.631,154.631
651,jewish high school student victim of anti-semitic harassment at school.,harassment,general antisemitism,in school,not specified,student,CO,Jefferson,conifer,8059,11/1/2016,Jefferson County CO,"534,543",39.586459999999995,-105.24560100000001,764.208,9.825,774.033
2367,swastika vandalism at a high school targeted jewish students.,vandalism,nazi,in school,not specified,student,CO,Routt,steamboat springs,8107,11/1/2016,Routt County CO,"23,509",40.48316,-106.985289,"2,362.03",6.11,"2,368.14"
1566,"jewish student heard individuals in a car chanting ""white power"" as they drove past her.",harassment,"general antisemitism, oppression connection",off-campus,not specified,not specified,CT,Middlesex,middletown,9007,11/1/2016,Middlesex County CT,"165,676",41.434525,-72.524227,369.301,69.762,439.063
949,swastika vandalism discovered in a bathroom at a high school.,vandalism,nazi,in school,not specified,not specified,FL,Alachua,gainesville,12001,11/1/2016,Alachua County FL,"247,336",29.67574,-82.357221,875.02,93.788,968.808
1502,middle school student made anti-semitic remarks and gave a jewish student a piece of paper with a swastika drawing on it.,harassment,"general antisemitism, nazi",in school,student,student,GA,Cobb,marietta,13067,11/1/2016,Cobb County GA,"688,078",33.93994,-84.574166,339.549,4.969,344.518
118,swastika drawn in school bathroom.,vandalism,nazi,in school,not specified,not specified,GA,Fulton,atlanta,13121,11/1/2016,Fulton County GA,"920,581",33.790034000000006,-84.468182,526.635,7.69,534.325
618,jewish elementary school student told by another student that jewish people are an inferior species.,harassment,general antisemitism,in school,student,student,MA,Franklin,colrain,25011,11/1/2016,Franklin County MA,"71,372",42.583791,-72.591655,699.319,25.255,724.574
809,swastika graffitied on school building.,vandalism,nazi,outside school,not specified,not specified,MA,Middlesex,billerica,25017,11/1/2016,Middlesex County MA,"1,503,085",42.479477,-71.396507,817.817,29.243,847.06
1770,two incidents of swastikas carved into benches in high school locker room.,vandalism,nazi,in school,not specified,not specified,MA,Middlesex,newton,25017,11/1/2016,Middlesex County MA,"1,503,085",42.479477,-71.396507,817.817,29.243,847.06
1693,"jewish high school student told to ""go back to the concentration camp"" by football teammate.",harassment,nazi,in school,student,student,MA,Norfolk,needham,25021,11/1/2016,Norfolk County MA,"670,850",42.169703000000005,-71.179875,396.105,48.241,444.346
2274,"swastikas found on middle school students' papers, school bulletin board, and paper covering a bookshelf.",vandalism,nazi,in school,not specified,student,MA,Norfolk,sharon,25021,11/1/2016,Norfolk County MA,"670,850",42.169703000000005,-71.179875,396.105,48.241,444.346
2380,"high school student tried to give jewish student a piece of paper with a swastika and ""burn the jews.""",harassment,nazi,in school,student,student,MA,Norfolk,stoughton,25021,11/1/2016,Norfolk County MA,"670,850",42.169703000000005,-71.179875,396.105,48.241,444.346
255,student made anti-semitic comments to jewish student.,harassment,general antisemitism,in school,student,student,MI,Oakland,bloomfield hills,26125,11/1/2016,Oakland County MI,"1,202,362",42.660452,-83.38421,867.663,39.631,907.294
254,non-jewish student verbally threatened and harassed jewish student.,harassment,general antisemitism,not specified,student,student,MI,Oakland,bloomfield hills,26125,11/1/2016,Oakland County MI,"1,202,362",42.660452,-83.38421,867.663,39.631,907.294
256,etching of swastika discovered on school property.,vandalism,nazi,outside school,not specified,school,MI,Oakland,bloomfield hills,26125,11/1/2016,Oakland County MI,"1,202,362",42.660452,-83.38421,867.663,39.631,907.294
2535,"jewish student told by another student, ""all jews should go back to auschwitz.""",harassment,nazi,not specified,student,student,MI,Oakland,walled lake,26125,11/1/2016,Oakland County MI,"1,202,362",42.660452,-83.38421,867.663,39.631,907.294
760,anti-semitic art featured student exhibition.,not specified,general antisemitism,school event,not specified,not specified,MI,Wayne,detroit,26163,11/1/2016,Wayne County MI,"1,820,584",42.284664,-83.261953,612.08,60.597,672.677
1604,jewish high school student discovered swastikas drawn on his notebook by other students.,vandalism,nazi,not specified,student,student,MN,Hennepin,minneapolis,27053,11/1/2016,Hennepin County MN,"1,152,425",45.006064,-93.475185,553.591,52.956,606.547
1618,"high school students chanted ""jews and hispanics go home!"" in aftermath of 2016 presidential election.",harassment,"oppresion connection, general antisemitism",not specified,student,not specified,MN,Hennepin,minnetonka,27053,11/1/2016,Hennepin County MN,"1,152,425",45.006064,-93.475185,553.591,52.956,606.547
95,a high school student was tagged in an instagram post that included pictures of hitler and anti-semitic comments.,cyberbullying,"nazi, general antisemitism",social media,not specified,student,NC,Buncombe,asheville,37021,11/1/2016,Buncombe County NC,"238,318",35.609371,-82.530426,656.672,3.469,660.141
1843,swastika etched into desk at middle school.,vandalism,nazi,in school,not specified,not specified,NE,Douglas,omaha,31055,11/1/2016,Douglas County NE,"517,110",41.297090999999995,-96.154066,328.455,10.892,339.347
138,school bench vandalized with swastikas and other vulgar drawings.,vandalism,nazi,in school,not specified,not specified,NH,Rockingham,auburn,33015,11/1/2016,Rockingham County NH,"295,223",42.98936,-71.099437,694.72,100.39,795.11
516,"middle school student victim of anti-semitic harassment, called a ""dirty jew.""",harassment,general antisemitism,not specified,not specified,student,NJ,Camden,cherry hill,34007,11/1/2016,Camden County NJ,"513,657",39.802352,-74.961251,221.263,6.03,227.293
517,"high school student victim of anti-semitic harassment by classmate who drew swastika and the letter ""n"" on victim's body during class.",harassment,"nazi, general antisemitism",in school,student,student,NJ,Camden,cherry hill,34007,11/1/2016,Camden County NJ,"513,657",39.802352,-74.961251,221.263,6.03,227.293
1329,school officials found swastika traced in wood chips of school playground.,vandalism,nazi,outside school,not specified,not specified,NJ,Essex,livingston,34013,11/1/2016,Essex County NJ,"783,969",40.787217,-74.24613599999999,126.212,3.419,129.631
2313,swastika graffiti discovered in middle school bathroom.,vandalism,nazi,in school,not specified,not specified,NJ,Sussex,sparta,34037,11/1/2016,Sussex County NJ,"149,265",41.137423999999996,-74.691855,519.014,16.729,535.743
18,anti-semitic bullying at school.,harassment,general antisemitism,in school,student,student,NM,Bernalillo,albuquerque,35001,11/1/2016,Bernalillo County NM,"662,564",35.054002000000004,-106.66906499999999,"1,160.83",6.36,"1,167.19"
1058,school's faculty restroom vandalized with swastika.,vandalism,nazi,in school,not specified,not specified,NY,Nassau,hewlett,36059,11/1/2016,Nassau County NY,"1,339,532",40.729687,-73.589384,284.716,168.518,453.234
1972,school's restroom vandalized with swastika.,vandalism,nazi,in school,not specified,not specified,NY,Nassau,port washington,36059,11/1/2016,Nassau County NY,"1,339,532",40.729687,-73.589384,284.716,168.518,453.234
1484,school's mural vandalized with swastika.,vandalism,nazi,in school,not specified,not specified,NY,New York,new york,36061,11/1/2016,New York County NY,"1,585,873",40.776557000000004,-73.970174,22.829,10.762,33.591
2022,high school desk vandalized with swastikas and anti-semitic comments.,vandalism,"nazi, general antisemitism",in school,not specified,not specified,NY,Queens,queens,36081,11/1/2016,Queens County NY,"2,230,722",40.658557,-73.837929,108.532,69.675,178.207
2361,school's basketball court vandalized with swastika.,vandalism,nazi,in school,not specified,not specified,NY,Richmond,staten island,36085,11/1/2016,Richmond County NY,"468,730",40.563855,-74.137063,58.37,43.921,102.291
2362,school grounds vandalized with two swastikas.,vandalism,nazi,outside school,not specified,not specified,NY,Richmond,staten island,36085,11/1/2016,Richmond County NY,"468,730",40.563855,-74.137063,58.37,43.921,102.291
478,high school students performed nazi salutes and vandalized school property with swastikas.,"vandalism, performance",nazi,in school,student,not specified,PA,Lehigh,center valley,42077,11/1/2016,Lehigh County PA,"349,497",40.614241,-75.590627,345.166,3.073,348.239
1089,student came to his spanish class in nazi uniform and taught class the nazi salute.,performance,nazi,in school,student,not specified,TX,Harris,houston,48201,11/1/2016,Harris County TX,"4,092,459",29.857273,-95.39303699999999,"1,703.48",74.005,"1,777.48"
150,high school student victim of anti-semitic harassment at school.,harassment,general antisemitism,in school,not specified,student,TX,Travis,austin,48453,11/1/2016,Travis County TX,"1,024,266",30.239513,-97.69126999999999,990.202,32.806,"1,023.01"
2116,teachers made jewish students wear yellow stars in lesson about immigration and discrimination.,harassment,nazi,in school,teacher,student,UT,Salt Lake,salt lake city,49035,11/1/2016,Salt Lake County UT,"1,029,655",40.667882,-111.92424399999999,742.282,65.085,807.367
422,"high school football players and their families received a flood of nazi, pornographic, and anti-semitic hate messages.",cyberbullying,"nazi, general antisemtism, oppression connection",social media,not specified,student,VA,Fairfax,burke,51059,11/1/2016,Fairfax County VA,"1,081,726",38.833743,-77.276117,390.969,15.277,406.246
1304,jewish student victim of anti-semitic harassment.,harassment,general antisemitism,not specified,not specified,student,VA,Loudoun,leesburg,51107,11/1/2016,Loudoun County VA,"312,311",39.08113,-77.638857,515.561,5.577,521.138
2387,"high school student told peers: ""we have to get rid of the jews once and for all.""",harassment,general antisemitism,not specified,student,student,WI,Jefferson,sumner,55055,11/1/2016,Jefferson County WI,"83,686",43.013807,-88.773986,556.474,26.263,582.737
1591,middle school students expressed support for hitler during a mock election.,harassment,nazi,in school,student,not specified,WI,Milwaukee,milwaukee,55079,11/1/2016,Milwaukee County WI,"947,735",43.017655,-87.481575,241.402,948.137,"1,189.54"
1592,a high school student presented a jewish student with a drawing of hitler.,harassment,nazi,in school,student,student,WI,Milwaukee,milwaukee,55079,11/1/2016,Milwaukee County WI,"947,735",43.017655,-87.481575,241.402,948.137,"1,189.54"
1596,jewish high school student's locker defaced with swastika graffiti.,vandalism,nazi,in school,not specified,student,WI,Milwaukee,milwaukee,55079,11/1/2016,Milwaukee County WI,"947,735",43.017655,-87.481575,241.402,948.137,"1,189.54"
940,yearbook quote referencing swastikas and nazi symbolism was submitted using the name of a jewish student.,harassment,nazi,publication,not specified,student,CA,Alameda,fremont,6001,12/1/2016,Alameda County CA,"1,510,271",37.648081,-121.91330400000001,739.017,82.311,821.328
1804,high school teacher promoted holocaust denial and anti-semitic conspiracy theories.,harassment,"holocaust denial, conspiracy",in school,teacher,not specified,CA,Alameda,oakland,6001,12/1/2016,Alameda County CA,"1,510,271",37.648081,-121.91330400000001,739.017,82.311,821.328
2539,high school student harassed jewish students.,harassment,general antisemitism,not specified,student,student,CA,Contra Costa,walnut creek,6013,12/1/2016,Contra Costa County CA,"1,049,025",37.919478999999995,-121.95154299999999,715.937,87.833,803.77
47,"middle school student told by another student, ""go to the gas chamber, dirty jew.""",harassment,nazi,not specified,student,student,CA,Los Angeles,altadena,6037,12/1/2016,Los Angeles County CA,"9,818,605",34.196397999999995,-118.26186200000001,"4,057.88",693.058,"4,750.94"
2213,"jewish high school student experienced repeated anti-semitic harassment from classmates, including the nazi salute.",harassment,"general antisemitism, nazi",in school,student,student,CA,Marin,san rafael,6041,12/1/2016,Marin County CA,"252,409",38.051817,-122.745974,520.306,307.886,828.192
1138,"jewish high school student who experienced multiple incidents of anti-semitic harassment was told that her ""breath smells like burning jews.""",harassment,"general antisemitism, nazi",not specified,not specified,student,CA,Riverside,indio,6065,12/1/2016,Riverside County CA,"2,189,641",33.729828000000005,-116.00223899999999,"7,206.48",96.94,"7,303.42"
817,"a non-jewish student yelled at a jewish student while playing tetherball: ""you're an asshole you jewish cunt.""",harassment,general antisemitism,outside school,student,student,CA,San Diego,el cajon,6073,12/1/2016,San Diego County CA,"3,095,313",33.023604,-116.776117,"4,206.63",319.055,"4,525.69"
2151,"jewish students overheard anti-semitic comments made by their peers, including a meme that read: ""feels good to kill jews.""","harassment, cyberbullying",general antisemitism,not specified,student,not specified,CA,San Diego,san diego,6073,12/1/2016,San Diego County CA,"3,095,313",33.023604,-116.776117,"4,206.63",319.055,"4,525.69"
308,"high school student victim of anti-semitic harassment and bullying told ""go back to the gas chamber.""",harassment,nazi,not specified,student,student,CO,Boulder,boulder,8013,12/1/2016,Boulder County CO,"294,567",40.094826,-105.39838200000001,726.289,14.081,740.37
730,jewish boy physically assaulted by peers at school for being jewish.,harassment,general antisemitism,in school,student,student,CO,Denver,denver,8031,12/1/2016,Denver County CO,"600,158",39.761849,-104.880625,153,1.631,154.631
2415,high school students formed a swastika with their bodies.,performance,nazi,not specified,student,not specified,FL,Leon,tallahassee,12073,12/1/2016,Leon County FL,"275,487",30.45931,-84.2778,666.852,34.937,701.789
1876,swastika drawn in pencil found inside school bathroom.,vandalism,nazi,in school,not specified,not specified,FL,Palm Beach,palm beach,12099,12/1/2016,Palm Beach County FL,"1,320,134",26.645763,-80.448673,"1,969.76",413.246,"2,383.01"
48,school vandalized with swastika.,vandalism,nazi,in school,not specified,not specified,FL,Seminole,altamonte springs,12117,12/1/2016,Seminole County FL,"422,718",28.690078999999997,-81.13198,309.221,36.073,345.294
1166,"middle school student called a ""filthy jew"" after picking up a coin from the gym floor.",harassment,"general antisemitism, money",in school,not specified,student,GA,Fulton,johns creek,13121,12/1/2016,Fulton County GA,"920,581",33.790034000000006,-84.468182,526.635,7.69,534.325
1168,"jewish middle school student experienced ongoing bullying in the form of anti-semitic ""jokes"" and insults.""",harassment,general antisemitism,in school,student,student,GA,Fulton,johns creek,13121,12/1/2016,Fulton County GA,"920,581",33.790034000000006,-84.468182,526.635,7.69,534.325
53,anti-semitic jokes and incidents at middle school.,harassment,general antisemitism,in school,not specified,not specified,MA,Hampshire,amherst,25015,12/1/2016,Hampshire County MA,"158,080",42.339459000000005,-72.66369399999999,527.255,17.954,545.209
448,anti-semitic graffiti including swastikas drawings and hateful language discovered in high school bathroom.,vandalism,"nazi, general antisemtism",in school,not specified,not specified,MA,Middlesex,cambridge,25017,12/1/2016,Middlesex County MA,"1,503,085",42.479477,-71.396507,817.817,29.243,847.06
925,"high school hockey player victim of anti-semitic ""jokes"" while being hazed.",harassment,general antisemitism,not specified,student,student,MA,Middlesex,framingham,25017,12/1/2016,Middlesex County MA,"1,503,085",42.479477,-71.396507,817.817,29.243,847.06
1689,anti-semitic graffiti found in middle school bathroom.,vandalism,general antisemitism,in school,not specified,not specified,MA,Middlesex,natick,25017,12/1/2016,Middlesex County MA,"1,503,085",42.479477,-71.396507,817.817,29.243,847.06
1582,swastika graffiti discovered in middle school bathroom.,vandalism,nazi,in school,not specified,not specified,MA,Norfolk,milton,25021,12/1/2016,Norfolk County MA,"670,850",42.169703000000005,-71.179875,396.105,48.241,444.346
564,group of students created anti-semitic instagram account targeting another student.,harassment,general antisemitism,social media,student,student,MO,St. Louis,clayton,29189,12/1/2016,St. Louis County MO,"998,954",38.640702000000005,-90.445954,507.8,15.218,523.018
518,middle school student victim of anti-semitic and racist verbal harassment.,harassment,"general antisemitism, oppression connection",not specified,not specified,student,NJ,Camden,cherry hill,34007,12/1/2016,Camden County NJ,"513,657",39.802352,-74.961251,221.263,6.03,227.293
977,teacher discovered desk in their classroom vandalized with swastika graffiti and star of david.,vandalism,"general antisemitism, nazi",in school,not specified,not specified,NJ,Gloucester,glassboro,34015,12/1/2016,Gloucester County NJ,"288,288",39.721019,-75.14370799999999,322.005,15.172,337.177
1077,swastika graffiti discovered in bathroom at school.,vandalism,nazi,in school,not specified,not specified,NJ,Monmouth,holmdel,34025,12/1/2016,Monmouth County NJ,"630,380",40.287056,-74.152446,468.793,196.527,665.32
1448,"individual received anti-semitic letter saying ""go back to your jew school.""",harassment,general antisemitism,not specified,not specified,student,NJ,Monmouth,manalapan,34025,12/1/2016,Monmouth County NJ,"630,380",40.287056,-74.152446,468.793,196.527,665.32
1437,"elementary school student told by older classmate that ""all jews lie and are bad"" and that hitler was a good leader.",harassment,"general antisemitism, nazi",in school,student,student,NJ,Morris,madison,34027,12/1/2016,Morris County NJ,"492,276",40.858581,-74.547427,460.177,21.448,481.625
1521,jewish middle school student victim of anti-semitic harassment including nazi salutes and swastika drawings circulated among peers.,"harassment, performance",nazi,in school,student,student,PA,Delaware,media,42045,12/1/2016,Delaware County PA,"558,979",39.91667,-75.398786,183.843,6.76,190.603
1921,"student shouted ""heil hitler"" to his jewish teacher on two separate occasions.",harassment,nazi,in school,student,teacher,PA,Philadelphia,philadelphia,42101,12/1/2016,Philadelphia County PA,"1,526,006",40.009376,-75.133346,134.101,8.606,142.707
2636,jewish students repeatedly harassed by other students on their school bus.,harassment,general antisemitism,outside school,student,student,PA,Pike,westfall,42103,12/1/2016,Pike County PA,"57,369",41.325949,-75.031514,544.961,21.889,566.85
1091,a jewish high school student was given unwanted nazi memorabilia by a classmate.,harassment,nazi,not specified,student,student,TX,Harris,houston,48201,12/1/2016,Harris County TX,"4,092,459",29.857273,-95.39303699999999,"1,703.48",74.005,"1,777.48"
2757,"jewish high school student harassed by classmates. she received text messages with pictures of nazis and the word ""kike,"" and verbal comments including anti-israel messages and that hitler should have ""finished the job.""",harassment,"general antisemitism, nazi, israel",not specified,student,student,CA,Alameda,alameda,6001,1/1/2017,Alameda County CA,"1,510,271",37.648081,-121.91330400000001,739.017,82.311,821.328
2769,jewish student harassed by classmate with anti-semitic language.,harassment,general antisemitism,not specified,student,student,CA,Riverside,palm springs,6065,1/1/2017,Riverside County CA,"2,189,641",33.729828000000005,-116.00223899999999,"7,206.48",96.94,"7,303.42"
2772,anti-semitic comments overheard in classroom.,harassment,general antisemitism,in school,not specified,not specified,CA,Riverside,palm springs,6065,1/1/2017,Riverside County CA,"2,189,641",33.729828000000005,-116.00223899999999,"7,206.48",96.94,"7,303.42"
2759,bomb threat - wornick jewish day school (jcc peninsula),bomb threat,general antisemitism,in school,not specified,school,CA,San Mateo,foster city,6081,1/1/2017,San Mateo County CA,"718,451",37.414664,-122.37154199999999,448.408,292.551,740.959
3021,"students named their team ""burn the jews"" in an online classroom game.",harassment,nazi,"in school, social media",student,not specified,CO,Denver,denver,8031,1/1/2017,Denver County CO,"600,158",39.761849,-104.880625,153,1.631,154.631
3023,anti-semitic rhetoric heard in classroom.,harassment,general antisemitism,in school,not specified,not specified,CO,Jefferson,conifer,8059,1/1/2017,Jefferson County CO,"534,543",39.586459999999995,-105.24560100000001,764.208,9.825,774.033
3020,high school student harassed with anti-semitic comments.,harassment,general antisemitism,not specified,not specified,student,CO,Pitkin,aspen,8097,1/1/2017,Pitkin County CO,"17,148",39.217533,-106.915943,970.697,2.498,973.195
3073,swastika trampled into snow at school sports field.,vandalism,nazi,outside school,not specified,not specified,CT,Hartford,west hartford,9003,1/1/2017,Hartford County CT,"894,014",41.806053000000006,-72.732916,735.097,15.527,750.624
3188,"jewish student subjected to holocaust ""jokes"" and comments about hitler by classmates.",harassment,nazi,in school,student,student,FL,Broward,coral springs,12011,1/1/2017,Broward County FL,"1,748,066",26.19352,-80.476658,"1,209.79",113.077,"1,322.86"
3405,swastika found in restroom at high school.,vandalism,nazi,in school,not specified,not specified,KY,Fayette,lexington,21067,1/1/2017,Fayette County KY,"295,803",38.040157,-84.458443,283.649,1.901,285.55
3433,"pro-trump jewish student was called a ""nazi"" by classmates.",harassment,nazi,in school,student,student,MA,Middlesex,newton,25017,1/1/2017,Middlesex County MA,"1,503,085",42.479477,-71.396507,817.817,29.243,847.06
3427,swastika discovered in boys bathroom in middle school.,vandalism,nazi,in school,not specified,not specified,MA,Norfolk,franklin,25021,1/1/2017,Norfolk County MA,"670,850",42.169703000000005,-71.179875,396.105,48.241,444.346
3601,swastika graffiti in multiple places at high school.,vandalism,nazi,in school,not specified,not specified,MD,Montgomery,kensington,24031,1/1/2017,Montgomery County MD,"971,777",39.137382,-77.203063,491.254,15.693,506.947
4056,driver yelled anti-semitic and threatening remarks at crossing guard and child in front of jewish elementary school.,harassment,general antisemitism,outside school,outsider,"school personnel, student",NY,Kings,brooklyn,36047,1/1/2017,Kings County NY,"2,504,700",40.635133,-73.950777,70.816,26.102,96.918
4592,"students taking senior picture were asked by photographer to do something fun for the photo. about 35 of them did a heil hitler salute and yelled out ""heil hitler"" and ""heil trump.""",performance,nazi,in school,student,not specified,TX,Harris,houston,48201,1/1/2017,Harris County TX,"4,092,459",29.857273,-95.39303699999999,"1,703.48",74.005,"1,777.48"
2717,bomb threat - n.e. miles jewish day school,bomb threat,general antisemitism,in school,not specified,school,AL,Jefferson,birmingham,1073,2/1/2017,Jefferson County AL,"658,466",33.553444,-86.896536,"1,111.28",12.538,"1,123.81"
2725,elementary school building defaced with swastikas.,vandalism,nazi,in school,not specified,not specified,AZ,Maricopa,paradise valley,4013,2/1/2017,Maricopa County AZ,"3,817,117",33.346540999999995,-112.495534,"9,200.14",24.246,"9,224.39"
2729,students made jokes about concentration camps and performed the nazi salute.,"harassment, performance",nazi,in school,student,not specified,AZ,Maricopa,paradise valley,4013,2/1/2017,Maricopa County AZ,"3,817,117",33.346540999999995,-112.495534,"9,200.14",24.246,"9,224.39"
2728,four incidents reported of children drawing swastikas at local school.,vandalism,nazi,in school,student,not specified,AZ,Maricopa,scottsdale,4013,2/1/2017,Maricopa County AZ,"3,817,117",33.346540999999995,-112.495534,"9,200.14",24.246,"9,224.39"
2726,"jewish student harassed by peers with holocaust ""jokes.""",harassment,nazi,not specified,student,student,AZ,Pima,tucson,4019,2/1/2017,Pima County AZ,"980,263",32.128237,-111.783018,"9,187.04",2.061,"9,189.10"
2813,westboro baptist church hate group protested outside jewish high school.,harassment,general antisemitism,outside school,outsider,school,CA,Los Angeles,los angeles,6037,2/1/2017,Los Angeles County CA,"9,818,605",34.196397999999995,-118.26186200000001,"4,057.88",693.058,"4,750.94"
2816,child drew swastika and showed it to a jewish classmate.,harassment,nazi,in school,student,student,CA,Los Angeles,pasadena,6037,2/1/2017,Los Angeles County CA,"9,818,605",34.196397999999995,-118.26186200000001,"4,057.88",693.058,"4,750.94"
2775,"jewish middle school student harassed by classmates with references to ""burning jews.""",harassment,nazi,not specified,student,student,CA,Los Angeles,south pasadena,6037,2/1/2017,Los Angeles County CA,"9,818,605",34.196397999999995,-118.26186200000001,"4,057.88",693.058,"4,750.94"
3025,jewish student received anti-semitic valentines day card.,harassment,general antisemitism,not specified,not specified,student,CO,Adams,westminster,8001,2/1/2017,Adams County CO,"441,603",39.874325,-104.331872,"1,167.65",16.243,"1,183.90"
3024,"jewish middle school student received anti-semitic messages on snapchat, told holocaust ""jokes,"" had pennies thrown at her by classmates.",harassment,"nazi, general antisemitism, money","in school, social media",student,student,CO,Eagle,eagle,8037,2/1/2017,Eagle County CO,"52,197",39.630638,-106.692944,"1,684.53",7.261,"1,691.79"
3081,bomb threat - hebrew high school of new england,bomb threat,general antisemitism,in school,not specified,school,CT,Hartford,west hartford,9003,2/1/2017,Hartford County CT,"894,014",41.806053000000006,-72.732916,735.097,15.527,750.624
3080,student carved two swastikas onto school desk.,vandalism,nazi,in school,student,not specified,CT,New Haven,new haven,9009,2/1/2017,New Haven County CT,"862,477",41.349717,-72.900204,604.506,257.551,862.057
3199,bomb threat - posnack jewish day school,bomb threat,general antisemitism,in school,not specified,school,FL,Broward,davie,12011,2/1/2017,Broward County FL,"1,748,066",26.19352,-80.476658,"1,209.79",113.077,"1,322.86"
3198,jewish student bullied with anti-semitic taunts by classmates.,harassment,general antisemitism,not specified,student,student,FL,Leon,tallahassee,12073,2/1/2017,Leon County FL,"275,487",30.45931,-84.2778,666.852,34.937,701.789
3195,anti-semitic valentines cards circulated in middle schools.,harassment,general antisemitism,in school,not specified,not specified,FL,Miami-Dade,miami,12086,2/1/2017,Miami-Dade County FL,"2,496,435",25.610494,-80.499045,"1,897.72",533.467,"2,431.18"
3190,"jewish student harassed with anti-semitic messages, including references to jews being cheap, swastikas, and message that the student's grandparents should have been ""roasted.""",harassment,"nazi, general antisemitism, money",social media,not specified,student,FL,Palm Beach,boca raton,12099,2/1/2017,Palm Beach County FL,"1,320,134",26.645763,-80.448673,"1,969.76",413.246,"2,383.01"
3193,anti-semitic note passed to jewish student.,harassment,general antisemitism,in school,not specified,student,FL,Palm Beach,boynton beach,12099,2/1/2017,Palm Beach County FL,"1,320,134",26.645763,-80.448673,"1,969.76",413.246,"2,383.01"
3280,jewish students harassed with anti-semitic jokes.,harassment,general antisemitism,not specified,not specified,student,GA,Fulton,johns creek,13121,2/1/2017,Fulton County GA,"920,581",33.790034000000006,-84.468182,526.635,7.69,534.325
3281,several students distributed valentine's day notes with anti-semitic content.,harassment,general antisemitism,in school,student,student,GA,Fulton,sandy springs,13121,2/1/2017,Fulton County GA,"920,581",33.790034000000006,-84.468182,526.635,7.69,534.325
3437,swastika drawn in turf at local schoolyard.,vandalism,nazi,outside school,not specified,not specified,MA,Middlesex,newton,25017,2/1/2017,Middlesex County MA,"1,503,085",42.479477,-71.396507,817.817,29.243,847.06
3604,bomb threat - aleph-bet jewish day school,bomb threat,general antisemitism,in school,not specified,school,MD,Anne Arundel,annapolis,24003,2/1/2017,Anne Arundel County MD,"537,656",38.993373999999996,-76.560511,414.902,172.899,587.801
3603,bomb threat - charles e. smith jewish day school,bomb threat,general antisemitism,in school,not specified,school,MD,Montgomery,rockville,24031,2/1/2017,Montgomery County MD,"971,777",39.137382,-77.203063,491.254,15.693,506.947
3644,swastikas spray painted in bathrooms at derby middle school,vandalism,nazi,in school,not specified,not specified,MI,Oakland,birmingham,26125,2/1/2017,Oakland County MI,"1,202,362",42.660452,-83.38421,867.663,39.631,907.294
3648,bomb threat - hebrew day school of ann arbor,bomb threat,general antisemitism,in school,not specified,school,MI,Washtenaw,ann arbor,26161,2/1/2017,Washtenaw County MI,"344,791",42.252327,-83.844634,705.965,16.454,722.419
3694,bomb threat - saul mirowitz jewish community school,bomb threat,general antisemitism,in school,not specified,school,MO,St. Louis,town and country,29189,2/1/2017,St. Louis County MO,"998,954",38.640702000000005,-90.445954,507.8,15.218,523.018
3717,bomb threat - lerner day school,bomb threat,general antisemitism,in school,not specified,school,NC,Durham,durham,37063,2/1/2017,Durham County NC,"267,587",36.036589,-78.87791899999999,285.975,11.891,297.866
4023,swastika painted on front door of cheyenne high school,vandalism,nazi,in school,not specified,not specified,NV,Clark,las vegas,32003,2/1/2017,Clark County NV,"1,951,269",36.214236,-115.013819,"7,891.43",169.381,"8,060.81"
4484,bomb threat - perelman jewish day school,bomb threat,general antisemitism,in school,not specified,school,PA,Montgomery,wynnewood,42091,2/1/2017,Montgomery County PA,"799,874",40.209998999999996,-75.370201,483.04,4.155,487.195
4647,jewish students harassed with anti-semitic language by their classmates.,harassment,general antisemitism,not specified,student,student,UT,Summit,park city,49043,2/1/2017,Summit County UT,"36,324",40.87206,-110.96848600000001,"1,871.71",10.259,"1,881.97"
4654,bomb threat - gesher jewish day school,bomb threat,general antisemitism,in school,not specified,school,VA,Fairfax,fairfax,51059,2/1/2017,Fairfax County VA,"1,081,726",38.833743,-77.276117,390.969,15.277,406.246
2720,swastika anti-semitic incident: vandalism at school.,vandalism,nazi,in school,not specified,not specified,AR,Boone,little rock,5009,3/1/2017,Boone County AR,"36,903",36.304308,-93.079204,590.231,11.6,601.831
2736,"racist, anti-semitic graffiti at high school.",vandalism,"general antisemitism, oppression connection",in school,not specified,not specified,AZ,Maricopa,phoenix,4013,3/1/2017,Maricopa County AZ,"3,817,117",33.346540999999995,-112.495534,"9,200.14",24.246,"9,224.39"
2732,jewish student being harassed for wearing star of david necklace.,harassment,general antisemitism,not specified,not specified,student,AZ,Maricopa,phoenix,4013,3/1/2017,Maricopa County AZ,"3,817,117",33.346540999999995,-112.495534,"9,200.14",24.246,"9,224.39"
2840,nine high school students painted swastikas and harassed jewish teacher.,"harassment, vandalism","general antisemitism, nazi",in school,student,teacher,CA,Alameda,albany,6001,3/1/2017,Alameda County CA,"1,510,271",37.648081,-121.91330400000001,739.017,82.311,821.328
2851,anti-semitic anti-semitic incident: harassment of middle school student by classmate.,harassment,general antisemitism,not specified,student,student,CA,Los Angeles,burbank,6037,3/1/2017,Los Angeles County CA,"9,818,605",34.196397999999995,-118.26186200000001,"4,057.88",693.058,"4,750.94"
2824,teacher used racist and anti-semitic language in class.,harassment,"general antisemitism, oppression connection",in school,teacher,not specified,CA,Orange,mission viejo,6059,3/1/2017,Orange County CA,"3,010,232",33.675686999999996,-117.777207,790.568,157.498,948.066
2856,"white supremacist flyers at high school that read: ""no jews, no problems.""",literature dump,general antisemitism,in school,not specified,not specified,CA,Riverside,riverside,6065,3/1/2017,Riverside County CA,"2,189,641",33.729828000000005,-116.00223899999999,"7,206.48",96.94,"7,303.42"
2823,"anti-semitic graffiti including a swastika and the words ""toasted jew"" found in high school.",vandalism,nazi,in school,not specified,not specified,CA,San Mateo,belmont,6081,3/1/2017,San Mateo County CA,"718,451",37.414664,-122.37154199999999,448.408,292.551,740.959
2839,numerous cases of anti-semitic anti-semitic incident: harassment of jewish students in middle school.,harassment,general antisemitism,in school,not specified,student,CA,Santa Barbara,santa barbara,6083,3/1/2017,Santa Barbara County CA,"423,895",34.537378000000004,-120.03848500000001,"2,735.09","1,053.99","3,789.08"
2852,middle school student received anti-semitic note.,harassment,general antisemitism,not specified,not specified,student,CA,Ventura,conejo valley,6111,3/1/2017,Ventura County CA,"823,318",34.358742,-119.13314299999999,"1,843.13",365.249,"2,208.38"
2822,"extensive bullying of jewish student, including anti-semitic language.",harassment,general antisemitism,not specified,student,student,CA,Ventura,ventura,6111,3/1/2017,Ventura County CA,"823,318",34.358742,-119.13314299999999,"1,843.13",365.249,"2,208.38"
3029,parents of jewish middle school students discovered that non-jewish students were sending anti-semitic jokes at their children.,harassment,general antisemitism,not specified,student,student,CO,Eagle,eagle,8037,3/1/2017,Eagle County CO,"52,197",39.630638,-106.692944,"1,684.53",7.261,"1,691.79"
3030,"numerous instances of middle school students chanting ""heil hitler"" and ""build a wall,"" and engaging in sexist behavior.",harassment,"nazi, oppression connection",not specified,student,not specified,CO,Jefferson,lakewood,8059,3/1/2017,Jefferson County CO,"534,543",39.586459999999995,-105.24560100000001,764.208,9.825,774.033
3088,swastika graffiti at high school.,vandalism,nazi,in school,not specified,not specified,CT,Fairfield,ridgefield,9001,3/1/2017,Fairfield County CT,"916,829",41.228103000000004,-73.36675699999999,624.89,212.033,836.923
3082,"report of frequent anti-semitic comments and ""jokes"" at a middle school.",harassment,general antisemitism,in school,not specified,not specified,CT,New Haven,amity,9009,3/1/2017,New Haven County CT,"862,477",41.349717,-72.900204,604.506,257.551,862.057
3128,swastika graffiti in high school.,vandalism,nazi,in school,not specified,not specified,DC,District of Columbia,washington,11001,3/1/2017,District of Columbia County DC,"601,723",38.904149,-77.017094,61.048,7.292,68.34
3205,bomb threat - posnack jewish day school,bomb threat,general antisemitism,in school,not specified,school,FL,Broward,davie,12011,3/1/2017,Broward County FL,"1,748,066",26.19352,-80.476658,"1,209.79",113.077,"1,322.86"
3216,anti-semitic anti-semitic incident: harassment of jewish students in high school.,harassment,general antisemitism,in school,not specified,student,FL,Orange,orlando,12095,3/1/2017,Orange County FL,"1,145,956",28.514435,-81.323295,903.429,99.831,"1,003.26"
3290,"middle school and high school students subjected to anti-semitic and holocaust-related ""jokes.""",harassment,"general antisemitism, nazi",not specified,not specified,student,GA,Columbia,augusta,13073,3/1/2017,Columbia County GA,"124,053",33.550556,-82.25134200000001,290.09,17.515,307.605
3288,"jewish middle school students harassed with holocaust-related ""jokes.""",harassment,nazi,not specified,not specified,student,GA,Forsyth,cumming,13117,3/1/2017,Forsyth County GA,"175,511",34.225143,-84.127336,224.021,23.145,247.166
3289,"swastikas, a drawing of a gun, and the words ""you the jews"" found in restroom at middle school.",vandalism,"general antisemitism, nazi",in school,not specified,not specified,GA,Fulton,johns creek,13121,3/1/2017,Fulton County GA,"920,581",33.790034000000006,-84.468182,526.635,7.69,534.325
3286,anti-semitic anti-semitic incident: harassment of jewish high school student.,harassment,general antisemitism,not specified,not specified,student,GA,Gwinnett,norcross,13135,3/1/2017,Gwinnett County GA,"805,321",33.959101000000004,-84.022938,430.383,6.392,436.775
3348,two jewish elementary school students were bullied with anti-semitic taunts by classmates.,harassment,general antisemitism,not specified,student,student,IL,Cook,chicago,17031,3/1/2017,Cook County IL,"5,194,675",41.894294,-87.645455,945.326,689.533,"1,634.86"
3351,swastikas trampled into snow at elementary school.,vandalism,nazi,outside school,not specified,not specified,IL,Cook,chicago,17031,3/1/2017,Cook County IL,"5,194,675",41.894294,-87.645455,945.326,689.533,"1,634.86"
3346,bomb threat - chicago jewish day school,bomb threat,general antisemitism,in school,not specified,school,IL,Cook,chicago,17031,3/1/2017,Cook County IL,"5,194,675",41.894294,-87.645455,945.326,689.533,"1,634.86"
3456,bomb threat - metrowest jewish day school,bomb threat,general antisemitism,in school,not specified,school,MA,Middlesex,framingham,25017,3/1/2017,Middlesex County MA,"1,503,085",42.479477,-71.396507,817.817,29.243,847.06
3457,bomb threat - solomon schechter day school,bomb threat,general antisemitism,in school,not specified,school,MA,Middlesex,newton,25017,3/1/2017,Middlesex County MA,"1,503,085",42.479477,-71.396507,817.817,29.243,847.06
3606,middle school students made nazi references and drew swastikas.,harassment,nazi,not specified,student,not specified,MD,Montgomery,ashton,24031,3/1/2017,Montgomery County MD,"971,777",39.137382,-77.203063,491.254,15.693,506.947
3697,high school circulated photo of student defaced with swastikas.,vandalism,nazi,in school,not specified,student,MO,St. Louis,clayton,29189,3/1/2017,St. Louis County MO,"998,954",38.640702000000005,-90.445954,507.8,15.218,523.018
3802,anti-semitic graffiti discovered on school desk.,vandalism,general antisemitism,in school,not specified,not specified,NJ,Middlesex,east brunswick,34023,3/1/2017,Middlesex County NJ,"809,858",40.439593,-74.407585,308.914,13.913,322.827
3799,"students found a drawing of hitler, a swastika, and the words ""kill all the jews"" and ""heil hitler"" written on a desk.",vandalism,nazi,in school,not specified,not specified,NJ,Middlesex,east brunswick,34023,3/1/2017,Middlesex County NJ,"809,858",40.439593,-74.407585,308.914,13.913,322.827
4118,jewish student harassed with anti-jewish language.,harassment,general antisemitism,not specified,not specified,student,NY,Ulster,saugerties,36111,3/1/2017,Ulster County NY,"182,493",41.947232,-74.265447,"1,124.24",36.525,"1,160.76"
4568,bomb threat - jewish community day school,bomb threat,general antisemitism,in school,not specified,school,RI,Providence,providence,44007,3/1/2017,Providence County RI,"626,667",41.870488,-71.578242,409.502,26.154,435.656
4567,threat of active shooter called in to jewish community day school.,bomb threat,general antisemitism,in school,not specified,school,RI,Providence,providence,44007,3/1/2017,Providence County RI,"626,667",41.870488,-71.578242,409.502,26.154,435.656
2868,anti-semitic graffiti in school.,vandalism,general antisemitism,in school,not specified,not specified,CA,Los Angeles,pacific palisades,6037,4/1/2017,Los Angeles County CA,"9,818,605",34.196397999999995,-118.26186200000001,"4,057.88",693.058,"4,750.94"
2877,students found swastikas drawn on desks.,vandalism,nazi,in school,not specified,not specified,CA,Yuba,egan,6115,4/1/2017,Yuba County CA,"72,155",39.270026,-121.34428,631.839,11.969,643.808
3038,anti-semitic bullying at a middle school.,harassment,general antisemitism,in school,student,student,CO,Adams,thornton,8001,4/1/2017,Adams County CO,"441,603",39.874325,-104.331872,"1,167.65",16.243,"1,183.90"
3036,jewish high school student anti-semitic incident: assaulted by classmates after being targeted with anti-semitic slurs for weeks.,harassment,general antisemitism,not specified,student,student,CO,Boulder,longmont,8013,4/1/2017,Boulder County CO,"294,567",40.094826,-105.39838200000001,726.289,14.081,740.37
3297,a student threw money at another student and made anti-semitic comments towards her.,harassment,money,not specified,student,student,GA,Cobb,marietta,13067,4/1/2017,Cobb County GA,"688,078",33.93994,-84.574166,339.549,4.969,344.518
3294,students directed the heil hitler salute to a jewish student during class.,performance,nazi,in school,student,student,GA,Fulton,johns creek,13121,4/1/2017,Fulton County GA,"920,581",33.790034000000006,-84.468182,526.635,7.69,534.325
3295,swastika found by a jewish student in the boy's bathroom of a middle school.,vandalism,nazi,in school,not specified,not specified,GA,Fulton,johns creek,13121,4/1/2017,Fulton County GA,"920,581",33.790034000000006,-84.468182,526.635,7.69,534.325
3835,anti-semitic messages written on school playground.,vandalism,general antisemitism,outside school,not specified,not specified,NJ,Monmouth,loch arbour village,34025,4/1/2017,Monmouth County NJ,"630,380",40.287056,-74.152446,468.793,196.527,665.32
3834,anti-semitic graffiti found scrawled at school playground.,vandalism,general antisemitism,outside school,not specified,not specified,NJ,Monmouth,manalapan,34025,4/1/2017,Monmouth County NJ,"630,380",40.287056,-74.152446,468.793,196.527,665.32
4182,two school buses with hebrew writing on them were vandalized.,vandalism,general antisemitism,outside school,not specified,not specified,NY,Kings,brooklyn,36047,4/1/2017,Kings County NY,"2,504,700",40.635133,-73.950777,70.816,26.102,96.918
4161,swastika graffiti at high school.,vandalism,nazi,in school,not specified,not specified,NY,Queens,long island city,36081,4/1/2017,Queens County NY,"2,230,722",40.658557,-73.837929,108.532,69.675,178.207
4619,"a high school history teacher told students during a lesson on world war ii, that jews killed jesus which is why hitler wanted to annihilate the jews.",harassment,"general antisemitism, nazi",in school,teacher,not specified,TX,Harris,katy,48201,4/1/2017,Harris County TX,"4,092,459",29.857273,-95.39303699999999,"1,703.48",74.005,"1,777.48"
2739,ongoing anti-semitic anti-semitic incident: harassment and bullying at a school.,harassment,general antisemitism,in school,student,student,AZ,Pima,vail,4019,5/1/2017,Pima County AZ,"980,263",32.128237,-111.783018,"9,187.04",2.061,"9,189.10"
2893,"graffiti including two swastikas, the nazi flag, and image of a bag of money with a star of david next to it, and the words ""jews are evil"" were found etched into a desk at a high school.",vandalism,"general antisemitism, nazi, money",in school,not specified,not specified,CA,Alameda,alameda,6001,5/1/2017,Alameda County CA,"1,510,271",37.648081,-121.91330400000001,739.017,82.311,821.328
2884,swastika drawn in feces discover in a boy's bathroom at a high school.,vandalism,nazi,in school,not specified,not specified,CA,Los Angeles,calabasas,6037,5/1/2017,Los Angeles County CA,"9,818,605",34.196397999999995,-118.26186200000001,"4,057.88",693.058,"4,750.94"
2891,a jewish student harassed with holocaust-related verbiage.,harassment,nazi,not specified,not specified,student,CA,Marin,larkspur,6041,5/1/2017,Marin County CA,"252,409",38.051817,-122.745974,520.306,307.886,828.192
2900,"a public school teacher has been repeatedly harassed by students yelling ""death to jews"" and ""heil hitler"" outside their classroom, and a swastika was drawn on the whiteboard.","vandalism, harassment",nazi,in school,student,teacher,CA,Monterey,monterey,6053,5/1/2017,Monterey County CA,"415,057",36.240107,-121.315573,"3,280.60",490.626,"3,771.22"
2897,"three fourth grade students sang to a fellow student a song with the words, ""we?re nazi?s and we hate the jews. we?re nazi?s and we are creeping you. we?re nazi?s and we?re killing you. we?e nazi?s and we go (sound of a machine gun.)""",harassment,nazi,in school,student,student,CA,Orange,laguna beach,6059,5/1/2017,Orange County CA,"3,010,232",33.675686999999996,-117.777207,790.568,157.498,948.066
2898,"a sixth-grade jewish boy was the victim of anti-semitic bullying as students taunted him with swastikas in class, and brought cigarette lighters to school telling the victim they will burn him ""like they did in the holocaust.""",harassment,nazi,in school,student,student,CA,Sonoma,healdsburg,6097,5/1/2017,Sonoma County CA,"483,878",38.532574,-122.945194,"1,575.85",192.098,"1,767.95"
3042,"a jewish elementary school boy was told by a fellow student ""all jews lie,"" and experienced continued bullying from the same child.",harassment,general antisemitism,not specified,student,student,CO,Denver,denver,8031,5/1/2017,Denver County CO,"600,158",39.761849,-104.880625,153,1.631,154.631
3092,two students were victims of anti-semitic bullying.,harassment,general antisemitism,not specified,student,student,CT,Hartford,newington,9003,5/1/2017,Hartford County CT,"894,014",41.806053000000006,-72.732916,735.097,15.527,750.624
3222,a middle school student faced continued anti-semitic anti-semitic incident: harassment from fellow students.,harassment,general antisemitism,not specified,student,student,FL,Hernando,spring hill,12053,5/1/2017,Hernando County FL,"172,778",28.567911,-82.464835,472.539,116.483,589.022
3225,swastikas and racial slurs found on walls at a high school.,vandalism,"nazi, oppression connection",in school,not specified,not specified,FL,Palm Beach,lantana,12099,5/1/2017,Palm Beach County FL,"1,320,134",26.645763,-80.448673,"1,969.76",413.246,"2,383.01"
3299,"swastika with the letters spelling out ""nazi,"" discovered by an eighth-grade jewish boy in a school bathroom.",vandalism,nazi,in school,not specified,not specified,GA,Fulton,johns creek,13121,5/1/2017,Fulton County GA,"920,581",33.790034000000006,-84.468182,526.635,7.69,534.325
3494,a middle school student and a high school student defaced school property with a swastika.,vandalism,nazi,in school,student,not specified,MA,Plymouth,duxbury,25023,5/1/2017,Plymouth County MA,"494,919",41.987196000000004,-70.74194200000001,659.075,434.177,"1,093.25"
3652,"swastikas, a racial slur, and a homophobic message spray painted outside forest hills central high school.",vandalism,"nazi, oppression connection",outside school,not specified,not specified,MI,Kent,grand rapids,26081,5/1/2017,Kent County MI,"602,622",43.032497,-85.547446,846.948,24.996,871.944
3709,"anti-semitic, pro-nazi, and racist graffiti found at a public school.",vandalism,"general antisemitism, nazi, oppression connection",in school,not specified,not specified,MS,Lauderdale,meridian,28075,5/1/2017,Lauderdale County MS,"80,261",32.403998,-88.660449,703.634,11.52,715.154
3858,"a swastika was drawn on the wall of a boys' bathroom stall, and a hateful message against jews in a girls' bathroom stall at a high school.",vandalism,"general antisemitism, nazi",in school,not specified,not specified,NJ,Bergen,oradell,34003,5/1/2017,Bergen County NJ,"905,116",40.95909,-74.074522,233.009,13.662,246.671
3856,swastika and other obscenities were painted on the property of an elementary school.,vandalism,nazi,outside school,not specified,not specified,NJ,Essex,caldwell,34013,5/1/2017,Essex County NJ,"783,969",40.787217,-74.24613599999999,126.212,3.419,129.631
3852,anti-semitic graffiti on school desk.,vandalism,general antisemitism,in school,not specified,not specified,NJ,Middlesex,east brunswick,34023,5/1/2017,Middlesex County NJ,"809,858",40.439593,-74.407585,308.914,13.913,322.827
3841,"note left on jewish student's desk with a swastika and the acronym ""kys,"" which means ""kill yourself.""",harassment,"general antisemitism, nazi",in school,not specified,student,NJ,Middlesex,east brunswick,34023,5/1/2017,Middlesex County NJ,"809,858",40.439593,-74.407585,308.914,13.913,322.827
3851,"a note was found at a school that contained an image of a swastika and the words ""white is supreme.""",harassment,"nazi, oppression connection",in school,not specified,not specified,NJ,Middlesex,east brunswick,34023,5/1/2017,Middlesex County NJ,"809,858",40.439593,-74.407585,308.914,13.913,322.827
3847,one student drew a swastika on another student's paper.,vandalism,nazi,in school,student,student,NJ,Middlesex,east brunswick,34023,5/1/2017,Middlesex County NJ,"809,858",40.439593,-74.407585,308.914,13.913,322.827
4196,anti-semitic graffiti found in male locker room at a school.,vandalism,general antisemitism,in school,not specified,not specified,NY,Bronx,bronx,36005,5/1/2017,Bronx County NY,"1,385,108",40.848711,-73.852939,42.096,15.382,57.478
4211,a swastika was carved into the sidewalk near a jewish school in brooklyn's gravesend neighborhood.,vandalism,nazi,outside school,not specified,not specified,NY,Kings,brooklyn,36047,5/1/2017,Kings County NY,"2,504,700",40.635133,-73.950777,70.816,26.102,96.918
4195,"graffiti reading ""nazi skin head,"" a swastika, and a threatening message discovered in a high school bathroom.",vandalism,nazi,in school,not specified,not specified,NY,New York,new york,36061,5/1/2017,New York County NY,"1,585,873",40.776557000000004,-73.970174,22.829,10.762,33.591
4187,"a swastika and the phrase, ""no jews,"" discovered in a boy's bathroom at an elementary school.",vandalism,"general antisemitism, nazi",in school,not specified,not specified,NY,Queens,belle harbor,36081,5/1/2017,Queens County NY,"2,230,722",40.658557,-73.837929,108.532,69.675,178.207
2914,anti-semitic graffiti found at elementary school.,vandalism,general antisemitism,in school,not specified,not specified,CA,Alameda,alameda,6001,6/1/2017,Alameda County CA,"1,510,271",37.648081,-121.91330400000001,739.017,82.311,821.328
2904,students vandalized school with graffiti that included a swastika.,vandalism,"general antisemitism, nazi",in school,student,not specified,CA,Alameda,fremont,6001,6/1/2017,Alameda County CA,"1,510,271",37.648081,-121.91330400000001,739.017,82.311,821.328
2910,holocaust denial posters found posted a strip mall and near a jewish day school.,literature dump,holocaust denial,off-campus,not specified,not specified,CA,Santa Clara,sunnyvale,6085,6/1/2017,Santa Clara County CA,"1,781,642",37.220777000000005,-121.69062199999999,"1,290.10",13.967,"1,304.07"
3871,anti-semitic and racist graffiti and swastikas were spray-painted on sign at elementary school playground.,vandalism,"general antisemitism, nazi, oppression connection",outside school,not specified,not specified,NJ,Essex,caldwell,34013,6/1/2017,Essex County NJ,"783,969",40.787217,-74.24613599999999,126.212,3.419,129.631
3867,an anti-semitic message was scrawled on playground equipment at an elementary school.,vandalism,general antisemitism,outside school,not specified,not specified,NJ,Middlesex,east brunswick,34023,6/1/2017,Middlesex County NJ,"809,858",40.439593,-74.407585,308.914,13.913,322.827
3865,students used anti-semitic screen names for a class assignment.,cyberbullying,general antisemitism,in school,student,not specified,NJ,Morris,east hanover,34027,6/1/2017,Morris County NJ,"492,276",40.858581,-74.547427,460.177,21.448,481.625
4015,"students overheard telling holocaust ""jokes"" in school.",harassment,nazi,in school,student,not specified,NM,Bernalillo,albuquerque,35001,6/1/2017,Bernalillo County NM,"662,564",35.054002000000004,-106.66906499999999,"1,160.83",6.36,"1,167.19"
4233,known local school bus with jewish iconography set ablaze in arson attack.,vandalism,general antisemitism,outside school,not specified,not specified,NY,Kings,brooklyn,36047,6/1/2017,Kings County NY,"2,504,700",40.635133,-73.950777,70.816,26.102,96.918
2940,"anti-semitic incident: vandalism including a swastika and the words ""white power"" written at a middle school.",vandalism,"nazi, oppression connection",in school,not specified,not specified,CA,Placer,roseville,6061,8/1/2017,Placer County CA,"348,432",39.062032,-120.722718,"1,407.01",95.447,"1,502.46"
2934,a jewish high school student experienced repeated anti-semitic anti-semitic incident: harassment and bullying by his peers.,harassment,general antisemitism,not specified,student,student,CA,Riverside,riverside,6065,8/1/2017,Riverside County CA,"2,189,641",33.729828000000005,-116.00223899999999,"7,206.48",96.94,"7,303.42"
2928,swastika were found spay-painted at a high school before fall semester began.,vandalism,nazi,in school,not specified,not specified,CA,Sonoma,santa rosa,6097,8/1/2017,Sonoma County CA,"483,878",38.532574,-122.945194,"1,575.85",192.098,"1,767.95"
3055,"a group of middle school girls were talking when a male student ran up, shouted ""heil hitler!"" and performed the nazi salute.",performance,nazi,in school,student,student,CO,Adams,brighton,8001,8/1/2017,Adams County CO,"441,603",39.874325,-104.331872,"1,167.65",16.243,"1,183.90"
3137,"the word ""kike"" was written on a high school building.",vandalism,general antisemitism,outside school,not specified,not specified,DC,District of Columbia,washington,11001,8/1/2017,District of Columbia County DC,"601,723",38.904149,-77.017094,61.048,7.292,68.34
3305,"a social media image of a group of high school students played a variation of beer pong, which they called ""nazis vs. jews"" went around the internet and community.","performance, cyberbullying",nazi,social media,student,not specified,GA,Fulton,atlanta,13121,8/1/2017,Fulton County GA,"920,581",33.790034000000006,-84.468182,526.635,7.69,534.325
3308,"elementary school teacher, who is jewish, discovered a swastika drawn on one of her planters.",vandalism,nazi,in school,not specified,teacher,GA,Fulton,atlanta,13121,8/1/2017,Fulton County GA,"920,581",33.790034000000006,-84.468182,526.635,7.69,534.325
3407,swastika graffiti was discovered on a student's car at a high school.,vandalism,nazi,outside school,not specified,student,KY,Oldham,goshen,21185,8/1/2017,Oldham County KY,"60,316",38.400046,-85.456059,187.218,9.216,196.434
3521,swastika drawn in the dirt at marblehead high school's softball field.,vandalism,nazi,outside school,not specified,not specified,MA,Essex,marblehead,25009,8/1/2017,Essex County MA,"743,159",42.642711,-70.865107,492.563,335.911,828.474
4273,a jewish star and a swastika were spray-painted on a slide at windermere boulevard elementary school.,vandalism,"general antisemitism, nazi",outside school,not specified,not specified,NY,Erie,amherst,36029,8/1/2017,Erie County NY,"919,040",42.752759000000005,-78.778192,"1,042.69",184.161,"1,226.85"
4287,"graffiti including swastikas, anti-semitic messages, and gang graffiti were found at syosset high school.",vandalism,"general antisemitism, nazi",in school,not specified,not specified,NY,Nassau,syosset,36059,8/1/2017,Nassau County NY,"1,339,532",40.729687,-73.589384,284.716,168.518,453.234
4669,a swastika was discovered in a bathroom stall at briar woods high school.,vandalism,nazi,in school,not specified,not specified,VA,Loudoun,ashburn,51107,8/1/2017,Loudoun County VA,"312,311",39.08113,-77.638857,515.561,5.577,521.138
2962,"anti-semitic and racist instagram account ""i hate jews"" created by berkeley high school students.",cyberbullying,"general antisemitism, oppression connection",social media,student,not specified,CA,Alameda,berkeley,6001,9/1/2017,Alameda County CA,"1,510,271",37.648081,-121.91330400000001,739.017,82.311,821.328
2958,a middle school student drew a swastika on the pavement at school.,vandalism,nazi,outside school,student,not specified,CA,Contra Costa,moraga,6013,9/1/2017,Contra Costa County CA,"1,049,025",37.919478999999995,-121.95154299999999,715.937,87.833,803.77
2964,jewish middle school student bullied with anti-semitic jokes and comments.,harassment,general antisemitism,not specified,student,student,CA,Los Angeles,long beach,6037,9/1/2017,Los Angeles County CA,"9,818,605",34.196397999999995,-118.26186200000001,"4,057.88",693.058,"4,750.94"
2965,elementary school student victim of anti-semitic bullying by a classmate.,harassment,general antisemitism,not specified,student,student,CA,Orange,laguna beach,6059,9/1/2017,Orange County CA,"3,010,232",33.675686999999996,-117.777207,790.568,157.498,948.066
2953,anti-semitic incident: vandalism that included a swastika were spray-painted on the campus of a high school.,vandalism,nazi,outside school,not specified,not specified,CA,San Diego,san diego,6073,9/1/2017,San Diego County CA,"3,095,313",33.023604,-116.776117,"4,206.63",319.055,"4,525.69"
3058,student at elementary school victim of anti-semitic bullying and anti-semitic incident: harassment by classmate.,harassment,general antisemitism,not specified,student,student,CO,Boulder,boulder,8013,9/1/2017,Boulder County CO,"294,567",40.094826,-105.39838200000001,726.289,14.081,740.37
3107,a swastika was found etched into a classroom table.,vandalism,nazi,in school,not specified,not specified,CT,Fairfield,ridgefield,9001,9/1/2017,Fairfield County CT,"916,829",41.228103000000004,-73.36675699999999,624.89,212.033,836.923
3683,"a swastika and the word ""soon"" were discovered at a high school on the eve of yom kippur.",vandalism,nazi,in school,not specified,not specified,MN,Stearns,st. cloud,27145,9/1/2017,Stearns County MN,"150,642",45.555234999999996,-94.61048199999999,"1,343.13",46.819,"1,389.95"
3908,"""hate kikes"" was written on a bathroom wall at a high school.",vandalism,general antisemitism,in school,not specified,not specified,NJ,Bergen,franklin lakes,34003,9/1/2017,Bergen County NJ,"905,116",40.95909,-74.074522,233.009,13.662,246.671
3910,swastika carved into the bulletin board in classroom at a high school.,vandalism,nazi,in school,not specified,not specified,NJ,Bergen,hackensack,34003,9/1/2017,Bergen County NJ,"905,116",40.95909,-74.074522,233.009,13.662,246.671
4307,two swastikas drawn on the sidewalk outside a jewish school.,vandalism,nazi,outside school,not specified,not specified,NY,Kings,brooklyn,36047,9/1/2017,Kings County NY,"2,504,700",40.635133,-73.950777,70.816,26.102,96.918
4300,"anti-semitic, racist, and homophobic graffiti discovered on desk at a high school.",vandalism,"general antisemitism, oppression connection",in school,not specified,not specified,NY,Nassau,old westbury,36059,9/1/2017,Nassau County NY,"1,339,532",40.729687,-73.589384,284.716,168.518,453.234
4459,anti-semitic slurs and white supremacist language were graffitied on the exterior of a high school.,vandalism,"general antisemitism, oppression connection",outside school,not specified,not specified,OR,Lane,eugene,41039,9/1/2017,Lane County OR,"351,715",43.928276000000004,-122.897678,"4,553.12",168.746,"4,721.87"
2745,jewish high school student victim of anti-semitic bullying at school.,harassment,general antisemitism,in school,student,student,AZ,Pima,tucson,4019,10/1/2017,Pima County AZ,"980,263",32.128237,-111.783018,"9,187.04",2.061,"9,189.10"
2974,"jewish student called a a ""yiddish piece of shit"" by a classmate.",harassment,general antisemitism,not specified,student,student,CA,Contra Costa,walnut creek,6013,10/1/2017,Contra Costa County CA,"1,049,025",37.919478999999995,-121.95154299999999,715.937,87.833,803.77
2979,"man drove by jewish high school yelling ""white power"" and made obscene gestures.",harassment,"general antisemitism, oppression connection",outside school,outsider,school,CA,Los Angeles,los angeles,6037,10/1/2017,Los Angeles County CA,"9,818,605",34.196397999999995,-118.26186200000001,"4,057.88",693.058,"4,750.94"
2987,swastika painted in red on the asphalt at a high school.,vandalism,nazi,outside school,not specified,not specified,CA,Marin,san anselmo,6041,10/1/2017,Marin County CA,"252,409",38.051817,-122.745974,520.306,307.886,828.192
2970,jewish middle school-aged student victim of ongoing anti-semitic anti-semitic incident: harassment and bullying at school.,harassment,general antisemitism,in school,student,student,CA,San Diego,bonita,6073,10/1/2017,San Diego County CA,"3,095,313",33.023604,-116.776117,"4,206.63",319.055,"4,525.69"
2978,"a swastika and the words ""sig hil"" (sic) were found drawn on the wall of a boys restroom at a high school.",vandalism,nazi,in school,not specified,not specified,CA,Yolo,davis,6113,10/1/2017,Yolo County CA,"200,849",38.679268,-121.903178,"1,014.69",8.868,"1,023.56"
2977,middle school received a number of emails through their anonymous reporting application containing images of swastikas.,cyberbullying,nazi,social media,not specified,student,CA,Yolo,davis,6113,10/1/2017,Yolo County CA,"200,849",38.679268,-121.903178,"1,014.69",8.868,"1,023.56"
3065,anti-semitic anti-semitic incident: harassment and bullying at elementary school.,harassment,general antisemitism,in school,student,student,CO,Denver,denver,8031,10/1/2017,Denver County CO,"600,158",39.761849,-104.880625,153,1.631,154.631
3115,swastika drawn on jewish student's locker.,vandalism,nazi,in school,not specified,student,CT,Fairfield,stamford,9001,10/1/2017,Fairfield County CT,"916,829",41.228103000000004,-73.36675699999999,624.89,212.033,836.923
3117,"a note that read: ""jews will burn"" was left on a middle school student's locker.",harassment,nazi,in school,not specified,student,CT,Fairfield,wilton,9001,10/1/2017,Fairfield County CT,"916,829",41.228103000000004,-73.36675699999999,624.89,212.033,836.923
3110,student at a middle school drew a swastika in the boys' bathroom.,vandalism,nazi,in school,student,not specified,CT,Fairfield,wilton,9001,10/1/2017,Fairfield County CT,"916,829",41.228103000000004,-73.36675699999999,624.89,212.033,836.923
3242,jewish student victim of anti-semitic bullying and anti-semitic incident: harassment at school.,harassment,general antisemitism,in school,student,student,FL,Duval,jacksonville beach,12031,10/1/2017,Duval County FL,"864,263",30.335245,-81.648113,762.192,156.26,918.452
3246,jewish elementary school student victim of anti-semitic anti-semitic incident: harassment and threat by classmate.,harassment,general antisemitism,not specified,student,student,FL,Orange,orlando,12095,10/1/2017,Orange County FL,"1,145,956",28.514435,-81.323295,903.429,99.831,"1,003.26"
3243,jewish teacher victim of ongoing anti-semitic anti-semitic incident: harassment by students.,harassment,general antisemitism,in school,student,teacher,FL,Orange,orlando,12095,10/1/2017,Orange County FL,"1,145,956",28.514435,-81.323295,903.429,99.831,"1,003.26"
3239,jewish students victims of anti-semitic comments at high school.,harassment,general antisemitism,in school,not specified,student,FL,Palm Beach,wellington,12099,10/1/2017,Palm Beach County FL,"1,320,134",26.645763,-80.448673,"1,969.76",413.246,"2,383.01"
